timestamp,data_rate,rate_multiplier,tx_rate_avg,tx_error_rate_avg,tx_message_count,tx_buffer_overruns,rx_rate_avg,rx_message_count,rx_message_lost_count,rx_buffer_overruns,rx_parse_errors,rx_packet_drop_count,rx_message_lost_rate,type,mode,flow_control,forwarding,mavlink_v2,ftp,streams,heartbeat_type_antenna_tracker,heartbeat_type_gcs,heartbeat_type_onboard_controller,heartbeat_type_gimbal,heartbeat_type_adsb,heartbeat_type_flarm,heartbeat_type_camera,heartbeat_type_parachute,heartbeat_type_open_drone_id,heartbeat_component_telemetry_radio,heartbeat_component_log,heartbeat_component_osd,heartbeat_component_vio,heartbeat_component_pairing_manager,heartbeat_component_udp_bridge,heartbeat_component_uart_bridge,open_drone_id_system_healthy,parachute_system_healthy
124364000,4000000.0,1.0,685.259,0.0,31,0,0.0,0,0,0,0,0,0.0,0,0,0,1,1,1,60,0,0,0,0,0,0,0,0,0,0,0,0,0,0,0,0,0,0
124620000,4000000.0,1.0,685.259,0.0,37,0,0.0,0,0,0,0,0,0.0,0,0,0,1,1,1,60,0,0,0,0,0,0,0,0,0,0,0,0,0,0,0,0,0,0
125876000,4000000.0,1.0,1141.4343,0.0,88,0,0.0,0,0,0,0,0,0.0,0,0,0,1,1,1,60,0,0,0,0,0,0,0,0,0,0,0,0,0,0,0,0,0,0
127132000,4000000.0,1.0,617.5299,0.0,121,0,0.0,0,0,0,0,0,0.0,0,0,0,1,1,1,60,0,0,0,0,0,0,0,0,0,0,0,0,0,0,0,0,0,0
128388000,4000000.0,1.0,604.58167,0.0,163,0,0.0,0,0,0,0,0,0.0,0,0,0,1,1,1,60,0,0,0,0,0,0,0,0,0,0,0,0,0,0,0,0,0,0
129388000,4000000.0,1.0,658.3666,0.0,193,0,0.0,0,0,0,0,0,0.0,0,0,0,1,1,1,60,0,0,0,0,0,0,0,0,0,0,0,0,0,0,0,0,0,0
129644000,4000000.0,1.0,658.3666,0.0,199,0,0.0,0,0,0,0,0,0.0,0,0,0,1,1,1,60,0,0,0,0,0,0,0,0,0,0,0,0,0,0,0,0,0,0
130900000,4000000.0,1.0,620.51794,0.0,233,0,0.0,0,0,0,0,0,0.0,0,0,0,1,1,1,60,0,0,0,0,0,0,0,0,0,0,0,0,0,0,0,0,0,0
132156000,4000000.0,1.0,645.41833,0.0,268,0,0.0,0,0,0,0,0,0.0,0,0,0,1,1,1,60,0,0,0,0,0,0,0,0,0,0,0,0,0,0,0,0,0,0
133416000,4000000.0,1.0,662.35065,0.0,311,0,0.0,0,0,0,0,0,0.0,0,0,0,1,1,1,60,0,0,0,0,0,0,0,0,0,0,0,0,0,0,0,0,0,0
134416000,4000000.0,1.0,621.514,0.0,339,0,0.0,0,0,0,0,0,0.0,0,0,0,1,1,1,60,0,0,0,0,0,0,0,0,0,0,0,0,0,0,0,0,0,0
134668000,4000000.0,1.0,621.514,0.0,345,0,0.0,0,0,0,0,0,0.0,0,0,0,1,1,1,60,0,0,0,0,0,0,0,0,0,0,0,0,0,0,0,0,0,0
135928000,4000000.0,1.0,659.36255,0.0,381,0,0.0,0,0,0,0,0,0.0,0,0,0,1,1,1,60,0,0,0,0,0,0,0,0,0,0,0,0,0,0,0,0,0,0
137184000,4000000.0,1.0,605.5777,0.0,413,0,0.0,0,0,0,0,0,0.0,0,0,0,1,1,1,60,0,0,0,0,0,0,0,0,0,0,0,0,0,0,0,0,0,0
138440000,4000000.0,1.0,618.52594,0.0,457,0,0.0,0,0,0,0,0,0.0,0,0,0,1,1,1,60,0,0,0,0,0,0,0,0,0,0,0,0,0,0,0,0,0,0
139440000,4000000.0,1.0,646.41437,0.0,486,0,0.0,0,0,0,0,0,0.0,0,0,0,1,1,1,60,0,0,0,0,0,0,0,0,0,0,0,0,0,0,0,0,0,0
139696000,4000000.0,1.0,646.41437,0.0,492,0,0.0,0,0,0,0,0,0.0,0,0,0,1,1,1,60,0,0,0,0,0,0,0,0,0,0,0,0,0,0,0,0,0,0
140956000,4000000.0,1.0,621.514,0.0,525,0,0.0,0,0,0,0,0,0.0,0,0,0,1,1,1,60,0,0,0,0,0,0,0,0,0,0,0,0,0,0,0,0,0,0
142212000,4000000.0,1.0,659.36255,0.0,561,0,0.0,0,0,0,0,0,0.0,0,0,0,1,1,1,60,0,0,0,0,0,0,0,0,0,0,0,0,0,0,0,0,0,0
143464000,4000000.0,1.0,683.26697,0.0,603,0,0.0,0,0,0,0,0,0.0,0,0,0,1,1,1,60,0,0,0,0,0,0,0,0,0,0,0,0,0,0,0,0,0,0
144464000,4000000.0,1.0,618.52594,0.0,632,0,0.0,0,0,0,0,0,0.0,0,0,0,1,1,1,60,0,0,0,0,0,0,0,0,0,0,0,0,0,0,0,0,0,0
144720000,4000000.0,1.0,618.52594,0.0,638,0,0.0,0,0,0,0,0,0.0,0,0,0,1,1,1,60,0,0,0,0,0,0,0,0,0,0,0,0,0,0,0,0,0,0
145972000,4000000.0,1.0,646.41437,0.0,673,0,0.0,0,0,0,0,0,0.0,0,0,0,1,1,1,60,0,0,0,0,0,0,0,0,0,0,0,0,0,0,0,0,0,0
147224000,4000000.0,1.0,605.5777,0.0,705,0,0.0,0,0,0,0,0,0.0,0,0,0,1,1,1,60,0,0,0,0,0,0,0,0,0,0,0,0,0,0,0,0,0,0
148476000,4000000.0,1.0,605.5777,0.0,749,0,0.0,0,0,0,0,0,0.0,0,0,0,1,1,1,60,0,0,0,0,0,0,0,0,0,0,0,0,0,0,0,0,0,0
149476000,4000000.0,1.0,646.41437,0.0,778,0,0.0,0,0,0,0,0,0.0,0,0,0,1,1,1,60,0,0,0,0,0,0,0,0,0,0,0,0,0,0,0,0,0,0
149728000,4000000.0,1.0,646.41437,0.0,784,0,0.0,0,0,0,0,0,0.0,0,0,0,1,1,1,60,0,0,0,0,0,0,0,0,0,0,0,0,0,0,0,0,0,0
150984000,4000000.0,1.0,634.46216,0.0,818,0,0.0,0,0,0,0,0,0.0,0,0,0,1,1,1,60,0,0,0,0,0,0,0,0,0,0,0,0,0,0,0,0,0,0
152236000,4000000.0,1.0,646.41437,0.0,853,0,0.0,0,0,0,0,0,0.0,0,0,0,1,1,1,60,0,0,0,0,0,0,0,0,0,0,0,0,0,0,0,0,0,0
153488000,4000000.0,1.0,696.21515,0.0,896,0,0.0,0,0,0,0,0,0.0,0,0,0,1,1,1,60,0,0,0,0,0,0,0,0,0,0,0,0,0,0,0,0,0,0
154488000,4000000.0,1.0,605.5777,0.0,924,0,0.0,0,0,0,0,0,0.0,0,0,0,1,1,1,60,0,0,0,0,0,0,0,0,0,0,0,0,0,0,0,0,0,0
154740000,4000000.0,1.0,605.5777,0.0,930,0,0.0,0,0,0,0,0,0.0,0,0,0,1,1,1,60,0,0,0,0,0,0,0,0,0,0,0,0,0,0,0,0,0,0
155996000,4000000.0,1.0,646.41437,0.0,965,0,0.0,0,0,0,0,0,0.0,0,0,0,1,1,1,60,0,0,0,0,0,0,0,0,0,0,0,0,0,0,0,0,0,0
157248000,4000000.0,1.0,634.46216,0.0,998,0,0.0,0,0,0,0,0,0.0,0,0,0,1,1,1,60,0,0,0,0,0,0,0,0,0,0,0,0,0,0,0,0,0,0
158500000,4000000.0,1.0,605.5777,0.0,1040,0,0.0,0,0,0,0,0,0.0,0,0,0,1,1,1,60,0,0,0,0,0,0,0,0,0,0,0,0,0,0,0,0,0,0
159500000,4000000.0,1.0,659.36255,0.0,1071,0,0.0,0,0,0,0,0,0.0,0,0,0,1,1,1,60,0,0,0,0,0,0,0,0,0,0,0,0,0,0,0,0,0,0
159756000,4000000.0,1.0,659.36255,0.0,1076,0,0.0,0,0,0,0,0,0.0,0,0,0,1,1,1,60,0,0,0,0,0,0,0,0,0,0,0,0,0,0,0,0,0,0
161008000,4000000.0,1.0,621.514,0.0,1110,0,0.0,0,0,0,0,0,0.0,0,0,0,1,1,1,60,0,0,0,0,0,0,0,0,0,0,0,0,0,0,0,0,0,0
162260000,4000000.0,1.0,646.41437,0.0,1145,0,0.0,0,0,0,0,0,0.0,0,0,0,1,1,1,60,0,0,0,0,0,0,0,0,0,0,0,0,0,0,0,0,0,0
163512000,4000000.0,1.0,683.26697,0.0,1188,0,0.0,0,0,0,0,0,0.0,0,0,0,1,1,1,60,0,0,0,0,0,0,0,0,0,0,0,0,0,0,0,0,0,0
164512000,4000000.0,1.0,683.26697,0.0,1216,0,0.0,0,0,0,0,0,0.0,0,0,0,1,1,1,60,0,0,0,0,0,0,0,0,0,0,0,0,0,0,0,0,0,0
164768000,4000000.0,1.0,605.5777,0.0,1222,0,0.0,0,0,0,0,0,0.0,0,0,0,1,1,1,60,0,0,0,0,0,0,0,0,0,0,0,0,0,0,0,0,0,0
166020000,4000000.0,1.0,659.36255,0.0,1258,0,0.0,0,0,0,0,0,0.0,0,0,0,1,1,1,60,0,0,0,0,0,0,0,0,0,0,0,0,0,0,0,0,0,0
167272000,4000000.0,1.0,621.514,0.0,1290,0,0.0,0,0,0,0,0,0.0,0,0,0,1,1,1,60,0,0,0,0,0,0,0,0,0,0,0,0,0,0,0,0,0,0
168524000,4000000.0,1.0,646.41437,0.0,1333,0,0.0,0,0,0,0,0,0.0,0,0,0,1,1,1,60,0,0,0,0,0,0,0,0,0,0,0,0,0,0,0,0,0,0
169524000,4000000.0,1.0,618.52594,0.0,1362,0,0.0,0,0,0,0,0,0.0,0,0,0,1,1,1,60,0,0,0,0,0,0,0,0,0,0,0,0,0,0,0,0,0,0
169780000,4000000.0,1.0,662.35065,0.0,1368,0,0.0,0,0,0,0,0,0.0,0,0,0,1,1,1,60,0,0,0,0,0,0,0,0,0,0,0,0,0,0,0,0,0,0
171032000,4000000.0,1.0,605.5777,0.0,1401,0,0.0,0,0,0,0,0,0.0,0,0,0,1,1,1,60,0,0,0,0,0,0,0,0,0,0,0,0,0,0,0,0,0,0
172284000,4000000.0,1.0,659.36255,0.0,1437,0,0.0,0,0,0,0,0,0.0,0,0,0,1,1,1,60,0,0,0,0,0,0,0,0,0,0,0,0,0,0,0,0,0,0
173284000,4000000.0,1.0,605.5777,0.0,1465,0,0.0,0,0,0,0,0,0.0,0,0,0,1,1,1,60,0,0,0,0,0,0,0,0,0,0,0,0,0,0,0,0,0,0
173540000,4000000.0,1.0,605.5777,0.0,1480,0,0.0,0,0,0,0,0,0.0,0,0,0,1,1,1,60,0,0,0,0,0,0,0,0,0,0,0,0,0,0,0,0,0,0
174792000,4000000.0,1.0,618.52594,0.0,1515,0,0.0,0,0,0,0,0,0.0,0,0,0,1,1,1,60,0,0,0,0,0,0,0,0,0,0,0,0,0,0,0,0,0,0
176044000,4000000.0,1.0,646.41437,0.0,1549,0,0.0,0,0,0,0,0,0.0,0,0,0,1,1,1,60,0,0,0,0,0,0,0,0,0,0,0,0,0,0,0,0,0,0
177304000,4000000.0,1.0,621.514,0.0,1582,0,0.0,0,0,0,0,0,0.0,0,0,0,1,1,1,60,0,0,0,0,0,0,0,0,0,0,0,0,0,0,0,0,0,0
178304000,4000000.0,1.0,659.36255,0.0,1613,0,0.0,0,0,0,0,0,0.0,0,0,0,1,1,1,60,0,0,0,0,0,0,0,0,0,0,0,0,0,0,0,0,0,0
178560000,4000000.0,1.0,659.36255,0.0,1625,0,0.0,0,0,0,0,0,0.0,0,0,0,1,1,1,60,0,0,0,0,0,0,0,0,0,0,0,0,0,0,0,0,0,0
179816000,4000000.0,1.0,662.35065,0.0,1660,0,0.0,0,0,0,0,0,0.0,0,0,0,1,1,1,60,0,0,0,0,0,0,0,0,0,0,0,0,0,0,0,0,0,0
181072000,4000000.0,1.0,618.52594,0.0,1694,0,0.0,0,0,0,0,0,0.0,0,0,0,1,1,1,60,0,0,0,0,0,0,0,0,0,0,0,0,0,0,0,0,0,0
182328000,4000000.0,1.0,646.41437,0.0,1730,0,0.0,0,0,0,0,0,0.0,0,0,0,1,1,1,60,0,0,0,0,0,0,0,0,0,0,0,0,0,0,0,0,0,0
183328000,4000000.0,1.0,621.514,0.0,1757,0,0.0,0,0,0,0,0,0.0,0,0,0,1,1,1,60,0,0,0,0,0,0,0,0,0,0,0,0,0,0,0,0,0,0
183584000,4000000.0,1.0,621.514,0.0,1773,0,0.0,0,0,0,0,0,0.0,0,0,0,1,1,1,60,0,0,0,0,0,0,0,0,0,0,0,0,0,0,0,0,0,0
184840000,4000000.0,1.0,605.5777,0.0,1807,0,0.0,0,0,0,0,0,0.0,0,0,0,1,1,1,60,0,0,0,0,0,0,0,0,0,0,0,0,0,0,0,0,0,0
186096000,4000000.0,1.0,646.41437,0.0,1841,0,0.0,0,0,0,0,0,0.0,0,0,0,1,1,1,60,0,0,0,0,0,0,0,0,0,0,0,0,0,0,0,0,0,0
187356000,4000000.0,1.0,634.46216,0.0,1884,0,0.0,0,0,0,0,0,0.0,0,0,0,1,1,1,60,0,0,0,0,0,0,0,0,0,0,0,0,0,0,0,0,0,0
188356000,4000000.0,1.0,646.41437,0.0,1912,0,0.0,0,0,0,0,0,0.0,0,0,0,1,1,1,60,0,0,0,0,0,0,0,0,0,0,0,0,0,0,0,0,0,0
188608000,4000000.0,1.0,646.41437,0.0,1917,0,0.0,0,0,0,0,0,0.0,0,0,0,1,1,1,60,0,0,0,0,0,0,0,0,0,0,0,0,0,0,0,0,0,0
189868000,4000000.0,1.0,675.2988,0.0,1954,0,0.0,0,0,0,0,0,0.0,0,0,0,1,1,1,60,0,0,0,0,0,0,0,0,0,0,0,0,0,0,0,0,0,0
191124000,4000000.0,1.0,605.5777,0.0,1987,0,0.0,0,0,0,0,0,0.0,0,0,0,1,1,1,60,0,0,0,0,0,0,0,0,0,0,0,0,0,0,0,0,0,0
192380000,4000000.0,1.0,646.41437,0.0,2029,0,0.0,0,0,0,0,0,0.0,0,0,0,1,1,1,60,0,0,0,0,0,0,0,0,0,0,0,0,0,0,0,0,0,0
193380000,4000000.0,1.0,634.46216,0.0,2060,0,0.0,0,0,0,0,0,0.0,0,0,0,1,1,1,60,0,0,0,0,0,0,0,0,0,0,0,0,0,0,0,0,0,0
193636000,4000000.0,1.0,667.3307,0.0,2065,0,0.0,0,0,0,0,0,0.0,0,0,0,1,1,1,60,0,0,0,0,0,0,0,0,0,0,0,0,0,0,0,0,0,0
194892000,4000000.0,1.0,605.5777,0.0,2099,0,0.0,0,0,0,0,0,0.0,0,0,0,1,1,1,60,0,0,0,0,0,0,0,0,0,0,0,0,0,0,0,0,0,0
196148000,4000000.0,1.0,675.2988,0.0,2134,0,0.0,0,0,0,0,0,0.0,0,0,0,1,1,1,60,0,0,0,0,0,0,0,0,0,0,0,0,0,0,0,0,0,0
197408000,4000000.0,1.0,605.5777,0.0,2177,0,0.0,0,0,0,0,0,0.0,0,0,0,1,1,1,60,0,0,0,0,0,0,0,0,0,0,0,0,0,0,0,0,0,0
198408000,4000000.0,1.0,646.41437,0.0,2205,0,0.0,0,0,0,0,0,0.0,0,0,0,1,1,1,60,0,0,0,0,0,0,0,0,0,0,0,0,0,0,0,0,0,0
198664000,4000000.0,1.0,618.52594,0.0,2211,0,0.0,0,0,0,0,0,0.0,0,0,0,1,1,1,60,0,0,0,0,0,0,0,0,0,0,0,0,0,0,0,0,0,0
199920000,4000000.0,1.0,662.35065,0.0,2246,0,0.0,0,0,0,0,0,0.0,0,0,0,1,1,1,60,0,0,0,0,0,0,0,0,0,0,0,0,0,0,0,0,0,0
201176000,4000000.0,1.0,605.5777,0.0,2279,0,0.0,0,0,0,0,0,0.0,0,0,0,1,1,1,60,0,0,0,0,0,0,0,0,0,0,0,0,0,0,0,0,0,0
202436000,4000000.0,1.0,659.36255,0.0,2322,0,0.0,0,0,0,0,0,0.0,0,0,0,1,1,1,60,0,0,0,0,0,0,0,0,0,0,0,0,0,0,0,0,0,0
203436000,4000000.0,1.0,621.514,0.0,2352,0,0.0,0,0,0,0,0,0.0,0,0,0,1,1,1,60,0,0,0,0,0,0,0,0,0,0,0,0,0,0,0,0,0,0
203692000,4000000.0,1.0,667.3307,0.0,2357,0,0.0,0,0,0,0,0,0.0,0,0,0,1,1,1,60,0,0,0,0,0,0,0,0,0,0,0,0,0,0,0,0,0,0
204948000,4000000.0,1.0,618.52594,0.0,2392,0,0.0,0,0,0,0,0,0.0,0,0,0,1,1,1,60,0,0,0,0,0,0,0,0,0,0,0,0,0,0,0,0,0,0
206204000,4000000.0,1.0,662.35065,0.0,2427,0,0.0,0,0,0,0,0,0.0,0,0,0,1,1,1,60,0,0,0,0,0,0,0,0,0,0,0,0,0,0,0,0,0,0
207464000,4000000.0,1.0,605.5777,0.0,2470,0,0.0,0,0,0,0,0,0.0,0,0,0,1,1,1,60,0,0,0,0,0,0,0,0,0,0,0,0,0,0,0,0,0,0
208464000,4000000.0,1.0,659.36255,0.0,2498,0,0.0,0,0,0,0,0,0.0,0,0,0,1,1,1,60,0,0,0,0,0,0,0,0,0,0,0,0,0,0,0,0,0,0
208720000,4000000.0,1.0,621.514,0.0,2503,0,0.0,0,0,0,0,0,0.0,0,0,0,1,1,1,60,0,0,0,0,0,0,0,0,0,0,0,0,0,0,0,0,0,0
209976000,4000000.0,1.0,646.41437,0.0,2537,0,0.0,0,0,0,0,0,0.0,0,0,0,1,1,1,60,0,0,0,0,0,0,0,0,0,0,0,0,0,0,0,0,0,0
211232000,4000000.0,1.0,618.52594,0.0,2572,0,0.0,0,0,0,0,0,0.0,0,0,0,1,1,1,60,0,0,0,0,0,0,0,0,0,0,0,0,0,0,0,0,0,0
212488000,4000000.0,1.0,646.41437,0.0,2615,0,0.0,0,0,0,0,0,0.0,0,0,0,1,1,1,60,0,0,0,0,0,0,0,0,0,0,0,0,0,0,0,0,0,0
213488000,4000000.0,1.0,621.514,0.0,2646,0,0.0,0,0,0,0,0,0.0,0,0,0,1,1,1,60,0,0,0,0,0,0,0,0,0,0,0,0,0,0,0,0,0,0
213744000,4000000.0,1.0,680.27893,0.0,2651,0,0.0,0,0,0,0,0,0.0,0,0,0,1,1,1,60,0,0,0,0,0,0,0,0,0,0,0,0,0,0,0,0,0,0
215004000,4000000.0,1.0,605.5777,0.0,2684,0,0.0,0,0,0,0,0,0.0,0,0,0,1,1,1,60,0,0,0,0,0,0,0,0,0,0,0,0,0,0,0,0,0,0
216260000,4000000.0,1.0,662.35065,0.0,2719,0,0.0,0,0,0,0,0,0.0,0,0,0,1,1,1,60,0,0,0,0,0,0,0,0,0,0,0,0,0,0,0,0,0,0
217516000,4000000.0,1.0,618.52594,0.0,2762,0,0.0,0,0,0,0,0,0.0,0,0,0,1,1,1,60,0,0,0,0,0,0,0,0,0,0,0,0,0,0,0,0,0,0
218516000,4000000.0,1.0,646.41437,0.0,2790,0,0.0,0,0,0,0,0,0.0,0,0,0,1,1,1,60,0,0,0,0,0,0,0,0,0,0,0,0,0,0,0,0,0,0
218772000,4000000.0,1.0,621.514,0.0,2795,0,0.0,0,0,0,0,0,0.0,0,0,0,1,1,1,60,0,0,0,0,0,0,0,0,0,0,0,0,0,0,0,0,0,0
220028000,4000000.0,1.0,659.36255,0.0,2831,0,0.0,0,0,0,0,0,0.0,0,0,0,1,1,1,60,0,0,0,0,0,0,0,0,0,0,0,0,0,0,0,0,0,0
221284000,4000000.0,1.0,605.5777,0.0,2865,0,0.0,0,0,0,0,0,0.0,0,0,0,1,1,1,60,0,0,0,0,0,0,0,0,0,0,0,0,0,0,0,0,0,0
222284000,4000000.0,1.0,662.35065,0.0,2894,0,0.0,0,0,0,0,0,0.0,0,0,0,1,1,1,60,0,0,0,0,0,0,0,0,0,0,0,0,0,0,0,0,0,0
222540000,4000000.0,1.0,662.35065,0.0,2908,0,0.0,0,0,0,0,0,0.0,0,0,0,1,1,1,60,0,0,0,0,0,0,0,0,0,0,0,0,0,0,0,0,0,0
223800000,4000000.0,1.0,667.3307,0.0,2943,0,0.0,0,0,0,0,0,0.0,0,0,0,1,1,1,60,0,0,0,0,0,0,0,0,0,0,0,0,0,0,0,0,0,0
225056000,4000000.0,1.0,605.5777,0.0,2976,0,0.0,0,0,0,0,0,0.0,0,0,0,1,1,1,60,0,0,0,0,0,0,0,0,0,0,0,0,0,0,0,0,0,0
226312000,4000000.0,1.0,675.2988,0.0,3012,0,0.0,0,0,0,0,0,0.0,0,0,0,1,1,1,60,0,0,0,0,0,0,0,0,0,0,0,0,0,0,0,0,0,0
227312000,4000000.0,1.0,605.5777,0.0,3041,0,0.0,0,0,0,0,0,0.0,0,0,0,1,1,1,60,0,0,0,0,0,0,0,0,0,0,0,0,0,0,0,0,0,0
227568000,4000000.0,1.0,605.5777,0.0,3055,0,0.0,0,0,0,0,0,0.0,0,0,0,1,1,1,60,0,0,0,0,0,0,0,0,0,0,0,0,0,0,0,0,0,0
228828000,4000000.0,1.0,671.31476,0.0,3090,0,0.0,0,0,0,0,0,0.0,0,0,0,1,1,1,60,0,0,0,0,0,0,0,0,0,0,0,0,0,0,0,0,0,0
230084000,4000000.0,1.0,646.41437,0.0,3124,0,0.0,0,0,0,0,0,0.0,0,0,0,1,1,1,60,0,0,0,0,0,0,0,0,0,0,0,0,0,0,0,0,0,0
231340000,4000000.0,1.0,605.5777,0.0,3158,0,0.0,0,0,0,0,0,0.0,0,0,0,1,1,1,60,0,0,0,0,0,0,0,0,0,0,0,0,0,0,0,0,0,0
232340000,4000000.0,1.0,675.2988,0.0,3188,0,0.0,0,0,0,0,0,0.0,0,0,0,1,1,1,60,0,0,0,0,0,0,0,0,0,0,0,0,0,0,0,0,0,0
232600000,4000000.0,1.0,675.2988,0.0,3201,0,0.0,0,0,0,0,0,0.0,0,0,0,1,1,1,60,0,0,0,0,0,0,0,0,0,0,0,0,0,0,0,0,0,0
233856000,4000000.0,1.0,667.3307,0.0,3236,0,0.0,0,0,0,0,0,0.0,0,0,0,1,1,1,60,0,0,0,0,0,0,0,0,0,0,0,0,0,0,0,0,0,0
235112000,4000000.0,1.0,634.46216,0.0,3271,0,0.0,0,0,0,0,0,0.0,0,0,0,1,1,1,60,0,0,0,0,0,0,0,0,0,0,0,0,0,0,0,0,0,0
236368000,4000000.0,1.0,646.41437,0.0,3313,0,0.0,0,0,0,0,0,0.0,0,0,0,1,1,1,60,0,0,0,0,0,0,0,0,0,0,0,0,0,0,0,0,0,0
237368000,4000000.0,1.0,605.5777,0.0,3343,0,0.0,0,0,0,0,0,0.0,0,0,0,1,1,1,60,0,0,0,0,0,0,0,0,0,0,0,0,0,0,0,0,0,0
237628000,4000000.0,1.0,605.5777,0.0,3349,0,0.0,0,0,0,0,0,0.0,0,0,0,1,1,1,60,0,0,0,0,0,0,0,0,0,0,0,0,0,0,0,0,0,0
238888000,4000000.0,1.0,621.514,0.0,3382,0,0.0,0,0,0,0,0,0.0,0,0,0,1,1,1,60,0,0,0,0,0,0,0,0,0,0,0,0,0,0,0,0,0,0
241236000,4000000.0,1.0,0.0,0.0,3,0,0.0,3,0,0,0,0,0.0,0,2,0,0,1,0,64,0,0,0,0,0,0,0,0,0,0,0,0,0,0,0,0,0,0
242232000,4000000.0,1.0,0.0,0.0,70,0,0.0,70,0,0,0,0,0.0,0,2,0,0,1,0,64,0,0,0,0,0,0,0,0,0,0,0,0,0,0,0,0,0,0
243228000,4000000.0,1.0,2034.8606,0.0,139,0,2034.8606,129,255,0,0,0,1.9767442,0,2,0,0,1,0,64,0,0,0,0,0,0,0,0,0,0,0,0,0,0,0,0,0,0
244228000,4000000.0,1.0,2067.7292,0.0,206,0,2067.7292,200,255,0,0,0,1.275,0,2,0,0,1,0,64,0,0,0,0,0,0,0,0,0,0,0,0,0,0,0,0,0,0
245228000,4000000.0,1.0,1976.0957,0.0,278,0,1976.0957,276,255,0,0,0,0.92391306,0,2,0,0,1,0,64,0,0,0,0,0,0,0,0,0,0,0,0,0,0,0,0,0,0
246232000,4000000.0,1.0,2067.7292,0.0,345,0,2067.7292,345,510,0,0,0,1.4782609,0,2,0,0,1,0,64,0,0,0,0,0,0,0,0,0,0,0,0,0,0,0,0,0,0
247228000,4000000.0,1.0,1964.1434,0.0,415,0,1964.1434,411,766,0,0,0,1.863747,0,2,0,0,1,0,64,0,0,0,0,0,0,0,0,0,0,0,0,0,0,0,0,0,0
248232000,4000000.0,1.0,2081.6733,0.0,483,0,2081.6733,483,1020,0,0,0,2.1118011,0,2,0,0,1,0,64,0,0,0,0,0,0,0,0,0,0,0,0,0,0,0,0,0,0
249228000,4000000.0,1.0,1964.1434,0.0,551,0,1964.1434,539,1020,0,0,0,1.8923934,0,2,0,0,1,0,64,0,0,0,0,0,0,0,0,0,0,0,0,0,0,0,0,0,0
250232000,4000000.0,1.0,2068.725,0.0,620,0,2068.725,620,1275,0,0,0,2.0564516,0,2,0,0,1,0,64,0,0,0,0,0,0,0,0,0,0,0,0,0,0,0,0,0,0
251228000,4000000.0,1.0,1977.0917,0.0,690,0,1977.0917,683,1275,0,0,0,1.8667643,0,2,0,0,1,0,64,0,0,0,0,0,0,0,0,0,0,0,0,0,0,0,0,0,0
252232000,4000000.0,1.0,2068.725,0.0,758,0,2068.725,758,1275,0,0,0,1.6820581,0,2,0,0,1,0,64,0,0,0,0,0,0,0,0,0,0,0,0,0,0,0,0,0,0
253228000,4000000.0,1.0,1964.1434,0.0,827,0,1964.1434,822,1275,0,0,0,1.5510949,0,2,0,0,1,0,64,0,0,0,0,0,0,0,0,0,0,0,0,0,0,0,0,0,0
254228000,4000000.0,1.0,2081.6733,0.0,896,0,2081.6733,895,1786,0,0,0,1.9955307,0,2,0,0,1,0,64,0,0,0,0,0,0,0,0,0,0,0,0,0,0,0,0,0,0
255232000,4000000.0,1.0,1964.1434,0.0,966,0,1964.1434,966,2550,0,0,0,2.6397514,0,2,0,0,1,0,64,0,0,0,0,0,0,0,0,0,0,0,0,0,0,0,0,0,0
256232000,4000000.0,1.0,2068.725,0.0,1033,0,2068.725,1033,2550,0,0,0,2.4685383,0,2,0,0,1,0,64,0,0,0,0,0,0,0,0,0,0,0,0,0,0,0,0,0,0
257228000,4000000.0,1.0,1977.0917,0.0,1104,0,1977.0917,1102,2805,0,0,0,2.545372,0,2,0,0,1,0,64,0,0,0,0,0,0,0,0,0,0,0,0,0,0,0,0,0,0
258228000,4000000.0,1.0,2068.725,0.0,1169,0,2068.725,1159,2805,0,0,0,2.4201899,0,2,0,0,1,0,64,0,0,0,0,0,0,0,0,0,0,0,0,0,0,0,0,0,0
259228000,4000000.0,1.0,1964.1434,0.0,1239,0,1964.1434,1227,2805,0,0,0,2.2860637,0,2,0,0,1,0,64,0,0,0,0,0,0,0,0,0,0,0,0,0,0,0,0,0,0
260232000,4000000.0,1.0,2081.6733,0.0,1309,0,2081.6733,1309,2805,0,0,0,2.142857,0,2,0,0,1,0,64,0,0,0,0,0,0,0,0,0,0,0,0,0,0,0,0,0,0
261232000,4000000.0,1.0,1964.1434,0.0,1379,0,1964.1434,1379,3314,0,0,0,2.4031906,0,2,0,0,1,0,64,0,0,0,0,0,0,0,0,0,0,0,0,0,0,0,0,0,0
262232000,4000000.0,1.0,2068.725,0.0,1446,0,2068.725,1446,3314,0,0,0,2.2918396,0,2,0,0,1,0,64,0,0,0,0,0,0,0,0,0,0,0,0,0,0,0,0,0,0
263228000,4000000.0,1.0,1977.0917,0.0,1516,0,1977.0917,1511,3569,0,0,0,2.362012,0,2,0,0,1,0,64,0,0,0,0,0,0,0,0,0,0,0,0,0,0,0,0,0,0
264232000,4000000.0,1.0,2068.725,0.0,1584,0,2068.725,1584,4079,0,0,0,2.5751262,0,2,0,0,1,0,64,0,0,0,0,0,0,0,0,0,0,0,0,0,0,0,0,0,0
265232000,4000000.0,1.0,1964.1434,0.0,1654,0,1964.1434,1654,4079,0,0,0,2.4661427,0,2,0,0,1,0,64,0,0,0,0,0,0,0,0,0,0,0,0,0,0,0,0,0,0
266232000,4000000.0,1.0,2194.2231,0.0,1722,0,2081.6733,1722,4079,0,0,0,2.3687572,0,2,0,0,1,0,64,0,0,0,0,0,0,0,0,0,0,0,0,0,0,0,0,0,0
267228000,4000000.0,1.0,1994.0239,0.0,1790,0,2106.5737,1778,4079,0,0,0,2.2941508,0,2,0,0,1,0,64,0,0,0,0,0,0,0,0,0,0,0,0,0,0,0,0,0,0
268228000,4000000.0,1.0,2068.725,0.0,1859,0,2068.725,1855,4334,0,0,0,2.336388,0,2,0,0,1,0,64,0,0,0,0,0,0,0,0,0,0,0,0,0,0,0,0,0,0
269228000,4000000.0,1.0,1977.0917,0.0,1930,0,1977.0917,1929,4844,0,0,0,2.5111456,0,2,0,0,1,0,64,0,0,0,0,0,0,0,0,0,0,0,0,0,0,0,0,0,0
270232000,4000000.0,1.0,2068.725,0.0,1997,0,2068.725,1997,4844,0,0,0,2.4256384,0,2,0,0,1,0,64,0,0,0,0,0,0,0,0,0,0,0,0,0,0,0,0,0,0
271232000,4000000.0,1.0,1964.1434,0.0,2067,0,1964.1434,2067,5099,0,0,0,2.4668603,0,2,0,0,1,0,64,0,0,0,0,0,0,0,0,0,0,0,0,0,0,0,0,0,0
272228000,4000000.0,1.0,2099.6016,0.0,2135,0,2099.6016,2133,5099,0,0,0,2.3905299,0,2,0,0,1,0,64,0,0,0,0,0,0,0,0,0,0,0,0,0,0,0,0,0,0
273228000,4000000.0,1.0,1964.1434,0.0,2203,0,1964.1434,2191,5099,0,0,0,2.3272479,0,2,0,0,1,0,64,0,0,0,0,0,0,0,0,0,0,0,0,0,0,0,0,0,0
274228000,4000000.0,1.0,2068.725,0.0,2270,0,2068.725,2259,5099,0,0,0,2.2571936,0,2,0,0,1,0,64,0,0,0,0,0,0,0,0,0,0,0,0,0,0,0,0,0,0
275228000,4000000.0,1.0,1977.0917,0.0,2341,0,1977.0917,2329,5099,0,0,0,2.1893516,0,2,0,0,1,0,64,0,0,0,0,0,0,0,0,0,0,0,0,0,0,0,0,0,0
276228000,4000000.0,1.0,2068.725,0.0,2408,0,2068.725,2398,5609,0,0,0,2.3390324,0,2,0,0,1,0,64,0,0,0,0,0,0,0,0,0,0,0,0,0,0,0,0,0,0
277228000,4000000.0,1.0,1964.1434,0.0,2478,0,1964.1434,2466,5609,0,0,0,2.2745337,0,2,0,0,1,0,64,0,0,0,0,0,0,0,0,0,0,0,0,0,0,0,0,0,0
278228000,4000000.0,1.0,2081.6733,0.0,2547,0,2081.6733,2541,5609,0,0,0,2.2073987,0,2,0,0,1,0,64,0,0,0,0,0,0,0,0,0,0,0,0,0,0,0,0,0,0
279228000,4000000.0,1.0,1964.1434,0.0,2618,0,1964.1434,2618,5864,0,0,0,2.2398777,0,2,0,0,1,0,64,0,0,0,0,0,0,0,0,0,0,0,0,0,0,0,0,0,0
280232000,4000000.0,1.0,2068.725,0.0,2685,0,2068.725,2685,5864,0,0,0,2.183985,0,2,0,0,1,0,64,0,0,0,0,0,0,0,0,0,0,0,0,0,0,0,0,0,0
281228000,4000000.0,1.0,1977.0917,0.0,2755,0,1977.0917,2750,5864,0,0,0,2.1323636,0,2,0,0,1,0,64,0,0,0,0,0,0,0,0,0,0,0,0,0,0,0,0,0,0
282232000,4000000.0,1.0,2068.725,0.0,2823,0,2068.725,2823,5864,0,0,0,2.0772228,0,2,0,0,1,0,64,0,0,0,0,0,0,0,0,0,0,0,0,0,0,0,0,0,0
283228000,4000000.0,1.0,1964.1434,0.0,2893,0,1964.1434,2889,5864,0,0,0,2.029768,0,2,0,0,1,0,64,0,0,0,0,0,0,0,0,0,0,0,0,0,0,0,0,0,0
284232000,4000000.0,1.0,2081.6733,0.0,2961,0,2081.6733,2961,6119,0,0,0,2.0665317,0,2,0,0,1,0,64,0,0,0,0,0,0,0,0,0,0,0,0,0,0,0,0,0,0
285228000,4000000.0,1.0,1964.1434,0.0,3031,0,1964.1434,3030,6374,0,0,0,2.1036303,0,2,0,0,1,0,64,0,0,0,0,0,0,0,0,0,0,0,0,0,0,0,0,0,0
286232000,4000000.0,1.0,2068.725,0.0,3098,0,2068.725,3098,6374,0,0,0,2.0574565,0,2,0,0,1,0,64,0,0,0,0,0,0,0,0,0,0,0,0,0,0,0,0,0,0
287232000,4000000.0,1.0,1977.0917,0.0,3169,0,1977.0917,3169,6374,0,0,0,2.0113602,0,2,0,0,1,0,64,0,0,0,0,0,0,0,0,0,0,0,0,0,0,0,0,0,0
288228000,4000000.0,1.0,2068.725,0.0,3234,0,2068.725,3224,6374,0,0,0,1.9770472,0,2,0,0,1,0,64,0,0,0,0,0,0,0,0,0,0,0,0,0,0,0,0,0,0
289232000,4000000.0,1.0,1964.1434,0.0,3306,0,1964.1434,3306,6374,0,0,0,1.9280096,0,2,0,0,1,0,64,0,0,0,0,0,0,0,0,0,0,0,0,0,0,0,0,0,0
290232000,4000000.0,1.0,2081.6733,0.0,3374,0,2081.6733,3374,6374,0,0,0,1.8891523,0,2,0,0,1,0,64,0,0,0,0,0,0,0,0,0,0,0,0,0,0,0,0,0,0
291228000,4000000.0,1.0,2142.4304,0.0,3444,0,1964.1434,3443,6627,0,0,0,1.9247749,0,2,0,0,1,0,64,0,0,0,0,0,0,0,0,0,0,0,0,0,0,0,0,0,0
292232000,4000000.0,1.0,2098.6057,0.0,3511,0,2276.8926,3511,6629,0,0,0,1.888066,0,2,0,0,1,0,64,0,0,0,0,0,0,0,0,0,0,0,0,0,0,0,0,0,0
293232000,4000000.0,1.0,1977.0917,0.0,3582,0,1977.0917,3582,6629,0,0,0,1.8506421,0,2,0,0,1,0,64,0,0,0,0,0,0,0,0,0,0,0,0,0,0,0,0,0,0
294232000,4000000.0,1.0,2068.725,0.0,3649,0,2068.725,3649,6884,0,0,0,1.8865442,0,2,0,0,1,0,64,0,0,0,0,0,0,0,0,0,0,0,0,0,0,0,0,0,0
295232000,4000000.0,1.0,1964.1434,0.0,3719,0,1964.1434,3719,6884,0,0,0,1.8510352,0,2,0,0,1,0,64,0,0,0,0,0,0,0,0,0,0,0,0,0,0,0,0,0,0
296232000,4000000.0,1.0,2081.6733,0.0,3787,0,2081.6733,3787,7139,0,0,0,1.8851334,0,2,0,0,1,0,64,0,0,0,0,0,0,0,0,0,0,0,0,0,0,0,0,0,0
297232000,4000000.0,1.0,1964.1434,0.0,3857,0,1964.1434,3857,7139,0,0,0,1.8509204,0,2,0,0,1,0,64,0,0,0,0,0,0,0,0,0,0,0,0,0,0,0,0,0,0
298232000,4000000.0,1.0,2068.725,0.0,3924,0,2068.725,3924,7139,0,0,0,1.819317,0,2,0,0,1,0,64,0,0,0,0,0,0,0,0,0,0,0,0,0,0,0,0,0,0
299228000,4000000.0,1.0,1977.0917,0.0,3994,0,1977.0917,3988,7139,0,0,0,1.7901204,0,2,0,0,1,0,64,0,0,0,0,0,0,0,0,0,0,0,0,0,0,0,0,0,0
300232000,4000000.0,1.0,2068.725,0.0,4062,0,2068.725,4062,7139,0,0,0,1.7575086,0,2,0,0,1,0,64,0,0,0,0,0,0,0,0,0,0,0,0,0,0,0,0,0,0
301228000,4000000.0,1.0,1964.1434,0.0,4132,0,1964.1434,4131,7139,0,0,0,1.728153,0,2,0,0,1,0,64,0,0,0,0,0,0,0,0,0,0,0,0,0,0,0,0,0,0
302228000,4000000.0,1.0,2081.6733,0.0,4200,0,2081.6733,4200,7394,0,0,0,1.7604762,0,2,0,0,1,0,64,0,0,0,0,0,0,0,0,0,0,0,0,0,0,0,0,0,0
303228000,4000000.0,1.0,1964.1434,0.0,4269,0,1964.1434,4263,7902,0,0,0,1.8536242,0,2,0,0,1,0,64,0,0,0,0,0,0,0,0,0,0,0,0,0,0,0,0,0,0
304228000,4000000.0,1.0,2068.725,0.0,4336,0,2068.725,4331,7904,0,0,0,1.8249826,0,2,0,0,1,0,64,0,0,0,0,0,0,0,0,0,0,0,0,0,0,0,0,0,0
305232000,4000000.0,1.0,1977.0917,0.0,4408,0,1977.0917,4408,8159,0,0,0,1.8509529,0,2,0,0,1,0,64,0,0,0,0,0,0,0,0,0,0,0,0,0,0,0,0,0,0
306228000,4000000.0,1.0,2068.725,0.0,4474,0,2068.725,4468,8159,0,0,0,1.8260967,0,2,0,0,1,0,64,0,0,0,0,0,0,0,0,0,0,0,0,0,0,0,0,0,0
307232000,4000000.0,1.0,1964.1434,0.0,4545,0,1964.1434,4545,8414,0,0,0,1.8512651,0,2,0,0,1,0,64,0,0,0,0,0,0,0,0,0,0,0,0,0,0,0,0,0,0
308232000,4000000.0,1.0,2081.6733,0.0,4613,0,2081.6733,4613,8414,0,0,0,1.8239757,0,2,0,0,1,0,64,0,0,0,0,0,0,0,0,0,0,0,0,0,0,0,0,0,0
309228000,4000000.0,1.0,1964.1434,0.0,4682,0,1964.1434,4677,8414,0,0,0,1.7990165,0,2,0,0,1,0,64,0,0,0,0,0,0,0,0,0,0,0,0,0,0,0,0,0,0
310232000,4000000.0,1.0,2068.725,0.0,4750,0,2068.725,4750,8669,0,0,0,1.8250526,0,2,0,0,1,0,64,0,0,0,0,0,0,0,0,0,0,0,0,0,0,0,0,0,0
311232000,4000000.0,1.0,1977.0917,0.0,4821,0,1977.0917,4821,8924,0,0,0,1.8510683,0,2,0,0,1,0,64,0,0,0,0,0,0,0,0,0,0,0,0,0,0,0,0,0,0
312232000,4000000.0,1.0,2068.725,0.0,4888,0,2068.725,4888,9434,0,0,0,1.9300327,0,2,0,0,1,0,64,0,0,0,0,0,0,0,0,0,0,0,0,0,0,0,0,0,0
313232000,4000000.0,1.0,1964.1434,0.0,4958,0,1964.1434,4958,9689,0,0,0,1.9542154,0,2,0,0,1,0,64,0,0,0,0,0,0,0,0,0,0,0,0,0,0,0,0,0,0
314228000,4000000.0,1.0,2081.6733,0.0,5026,0,2081.6733,5025,9689,0,0,0,1.9281592,0,2,0,0,1,0,64,0,0,0,0,0,0,0,0,0,0,0,0,0,0,0,0,0,0
315228000,4000000.0,1.0,1964.1434,0.0,5096,0,1964.1434,5095,9943,0,0,0,1.9515212,0,2,0,0,1,0,64,0,0,0,0,0,0,0,0,0,0,0,0,0,0,0,0,0,0
316228000,4000000.0,1.0,2181.275,0.0,5161,0,2068.725,5151,9944,0,0,0,1.930499,0,2,0,0,1,0,64,0,0,0,0,0,0,0,0,0,0,0,0,0,0,0,0,0,0
317232000,4000000.0,1.0,2006.9722,0.0,5234,0,2119.522,5234,9944,0,0,0,1.8998854,0,2,0,0,1,0,64,0,0,0,0,0,0,0,0,0,0,0,0,0,0,0,0,0,0
318232000,4000000.0,1.0,2068.725,0.0,5301,0,2068.725,5301,10199,0,0,0,1.9239767,0,2,0,0,1,0,64,0,0,0,0,0,0,0,0,0,0,0,0,0,0,0,0,0,0
319232000,4000000.0,1.0,1964.1434,0.0,5371,0,1964.1434,5371,10454,0,0,0,1.9463787,0,2,0,0,1,0,64,0,0,0,0,0,0,0,0,0,0,0,0,0,0,0,0,0,0
320232000,4000000.0,1.0,2081.6733,0.0,5439,0,2081.6733,5439,10709,0,0,0,1.9689281,0,2,0,0,1,0,64,0,0,0,0,0,0,0,0,0,0,0,0,0,0,0,0,0,0
321228000,4000000.0,1.0,1964.1434,0.0,5509,0,1964.1434,5508,10965,0,0,0,1.9907408,0,2,0,0,1,0,64,0,0,0,0,0,0,0,0,0,0,0,0,0,0,0,0,0,0
322228000,4000000.0,1.0,2068.725,0.0,5576,0,2068.725,5573,11219,0,0,0,2.013099,0,2,0,0,1,0,64,0,0,0,0,0,0,0,0,0,0,0,0,0,0,0,0,0,0
323232000,4000000.0,1.0,1977.0917,0.0,5646,0,1977.0917,5646,11219,0,0,0,1.9870704,0,2,0,0,1,0,64,0,0,0,0,0,0,0,0,0,0,0,0,0,0,0,0,0,0
324228000,4000000.0,1.0,2068.725,0.0,5712,0,2068.725,5702,11474,0,0,0,2.0122764,0,2,0,0,1,0,64,0,0,0,0,0,0,0,0,0,0,0,0,0,0,0,0,0,0
325232000,4000000.0,1.0,1964.1434,0.0,5783,0,1964.1434,5783,11474,0,0,0,1.9840913,0,2,0,0,1,0,64,0,0,0,0,0,0,0,0,0,0,0,0,0,0,0,0,0,0
326232000,4000000.0,1.0,2081.6733,0.0,5852,0,2081.6733,5852,11474,0,0,0,1.9606972,0,2,0,0,1,0,64,0,0,0,0,0,0,0,0,0,0,0,0,0,0,0,0,0,0
327228000,4000000.0,1.0,1964.1434,0.0,5921,0,1964.1434,5921,11729,0,0,0,1.9809154,0,2,0,0,1,0,64,0,0,0,0,0,0,0,0,0,0,0,0,0,0,0,0,0,0
328232000,4000000.0,1.0,2068.725,0.0,5989,0,2068.725,5989,11729,0,0,0,1.9584237,0,2,0,0,1,0,64,0,0,0,0,0,0,0,0,0,0,0,0,0,0,0,0,0,0
329228000,4000000.0,1.0,1977.0917,0.0,6058,0,1977.0917,6052,11729,0,0,0,1.938037,0,2,0,0,1,0,64,0,0,0,0,0,0,0,0,0,0,0,0,0,0,0,0,0,0
330228000,4000000.0,1.0,2068.725,0.0,6127,0,2068.725,6127,11983,0,0,0,1.9557695,0,2,0,0,1,0,64,0,0,0,0,0,0,0,0,0,0,0,0,0,0,0,0,0,0
331232000,4000000.0,1.0,1964.1434,0.0,6196,0,1964.1434,6196,11983,0,0,0,1.9339896,0,2,0,0,1,0,64,0,0,0,0,0,0,0,0,0,0,0,0,0,0,0,0,0,0
332228000,4000000.0,1.0,2081.6733,0.0,6264,0,2081.6733,6258,12238,0,0,0,1.9555769,0,2,0,0,1,0,64,0,0,0,0,0,0,0,0,0,0,0,0,0,0,0,0,0,0
333232000,4000000.0,1.0,1964.1434,0.0,6334,0,1964.1434,6334,12238,0,0,0,1.9321125,0,2,0,0,1,0,64,0,0,0,0,0,0,0,0,0,0,0,0,0,0,0,0,0,0
334232000,4000000.0,1.0,2068.725,0.0,6402,0,2068.725,6402,12238,0,0,0,1.9115901,0,2,0,0,1,0,64,0,0,0,0,0,0,0,0,0,0,0,0,0,0,0,0,0,0
335232000,4000000.0,1.0,1977.0917,0.0,6472,0,1977.0917,6472,12238,0,0,0,1.8909147,0,2,0,0,1,0,64,0,0,0,0,0,0,0,0,0,0,0,0,0,0,0,0,0,0
336232000,4000000.0,1.0,2068.725,0.0,6540,0,2068.725,6540,12238,0,0,0,1.8712538,0,2,0,0,1,0,64,0,0,0,0,0,0,0,0,0,0,0,0,0,0,0,0,0,0
337228000,4000000.0,1.0,1964.1434,0.0,6609,0,1964.1434,6609,12238,0,0,0,1.8517174,0,2,0,0,1,0,64,0,0,0,0,0,0,0,0,0,0,0,0,0,0,0,0,0,0
338228000,4000000.0,1.0,2081.6733,0.0,6678,0,2081.6733,6677,12238,0,0,0,1.832859,0,2,0,0,1,0,64,0,0,0,0,0,0,0,0,0,0,0,0,0,0,0,0,0,0
339228000,4000000.0,1.0,1964.1434,0.0,6747,0,1964.1434,6745,12493,0,0,0,1.8521868,0,2,0,0,1,0,64,0,0,0,0,0,0,0,0,0,0,0,0,0,0,0,0,0,0
340228000,4000000.0,1.0,2068.725,0.0,6813,0,2068.725,6802,12493,0,0,0,1.8366656,0,2,0,0,1,0,64,0,0,0,0,0,0,0,0,0,0,0,0,0,0,0,0,0,0
341228000,4000000.0,1.0,2155.3787,0.0,6884,0,1977.0917,6878,12749,0,0,0,1.8535912,0,2,0,0,1,0,64,0,0,0,0,0,0,0,0,0,0,0,0,0,0,0,0,0,0
342232000,4000000.0,1.0,2098.6057,0.0,6953,0,2276.8926,6953,13258,0,0,0,1.9068028,0,2,0,0,1,0,64,0,0,0,0,0,0,0,0,0,0,0,0,0,0,0,0,0,0
343228000,4000000.0,1.0,1964.1434,0.0,7020,0,1964.1434,7008,13258,0,0,0,1.891838,0,2,0,0,1,0,64,0,0,0,0,0,0,0,0,0,0,0,0,0,0,0,0,0,0
344232000,4000000.0,1.0,2081.6733,0.0,7091,0,2081.6733,7091,13513,0,0,0,1.905655,0,2,0,0,1,0,64,0,0,0,0,0,0,0,0,0,0,0,0,0,0,0,0,0,0
345232000,4000000.0,1.0,1964.1434,0.0,7160,0,1964.1434,7160,13513,0,0,0,1.8872905,0,2,0,0,1,0,64,0,0,0,0,0,0,0,0,0,0,0,0,0,0,0,0,0,0
346232000,4000000.0,1.0,2068.725,0.0,7228,0,2068.725,7228,13513,0,0,0,1.8695351,0,2,0,0,1,0,64,0,0,0,0,0,0,0,0,0,0,0,0,0,0,0,0,0,0
347232000,4000000.0,1.0,1977.0917,0.0,7298,0,1977.0917,7298,13513,0,0,0,1.8516032,0,2,0,0,1,0,64,0,0,0,0,0,0,0,0,0,0,0,0,0,0,0,0,0,0
348228000,4000000.0,1.0,2068.725,0.0,7364,0,2068.725,7354,14023,0,0,0,1.9068534,0,2,0,0,1,0,64,0,0,0,0,0,0,0,0,0,0,0,0,0,0,0,0,0,0
349232000,4000000.0,1.0,1964.1434,0.0,7435,0,1964.1434,7435,14278,0,0,0,1.9203765,0,2,0,0,1,0,64,0,0,0,0,0,0,0,0,0,0,0,0,0,0,0,0,0,0
350228000,4000000.0,1.0,2081.6733,0.0,7502,0,2081.6733,7492,14533,0,0,0,1.9398024,0,2,0,0,1,0,64,0,0,0,0,0,0,0,0,0,0,0,0,0,0,0,0,0,0
351228000,4000000.0,1.0,1964.1434,0.0,7572,0,1964.1434,7566,14788,0,0,0,1.9545335,0,2,0,0,1,0,64,0,0,0,0,0,0,0,0,0,0,0,0,0,0,0,0,0,0
352232000,4000000.0,1.0,2068.725,0.0,7641,0,2068.725,7641,14788,0,0,0,1.9353487,0,2,0,0,1,0,64,0,0,0,0,0,0,0,0,0,0,0,0,0,0,0,0,0,0
353228000,4000000.0,1.0,1977.0917,0.0,7711,0,1977.0917,7708,14789,0,0,0,1.918656,0,2,0,0,1,0,64,0,0,0,0,0,0,0,0,0,0,0,0,0,0,0,0,0,0
354232000,4000000.0,1.0,2068.725,0.0,7779,0,2068.725,7779,15043,0,0,0,1.9337962,0,2,0,0,1,0,64,0,0,0,0,0,0,0,0,0,0,0,0,0,0,0,0,0,0
355232000,4000000.0,1.0,1964.1434,0.0,7848,0,1964.1434,7848,15043,0,0,0,1.9167941,0,2,0,0,1,0,64,0,0,0,0,0,0,0,0,0,0,0,0,0,0,0,0,0,0
356232000,4000000.0,1.0,2081.6733,0.0,7917,0,2081.6733,7917,15043,0,0,0,1.9000884,0,2,0,0,1,0,64,0,0,0,0,0,0,0,0,0,0,0,0,0,0,0,0,0,0
357228000,4000000.0,1.0,1964.1434,0.0,7986,0,1964.1434,7985,15551,0,0,0,1.9475266,0,2,0,0,1,0,64,0,0,0,0,0,0,0,0,0,0,0,0,0,0,0,0,0,0
358228000,4000000.0,1.0,2068.725,0.0,8052,0,2068.725,8042,15552,0,0,0,1.9338473,0,2,0,0,1,0,64,0,0,0,0,0,0,0,0,0,0,0,0,0,0,0,0,0,0
359228000,4000000.0,1.0,1977.0917,0.0,8124,0,1977.0917,8121,15808,0,0,0,1.9465584,0,2,0,0,1,0,64,0,0,0,0,0,0,0,0,0,0,0,0,0,0,0,0,0,0
360228000,4000000.0,1.0,2068.725,0.0,8191,0,2068.725,8186,16317,0,0,0,1.9932812,0,2,0,0,1,0,64,0,0,0,0,0,0,0,0,0,0,0,0,0,0,0,0,0,0
361232000,4000000.0,1.0,1964.1434,0.0,8261,0,1964.1434,8261,16572,0,0,0,2.0060525,0,2,0,0,1,0,64,0,0,0,0,0,0,0,0,0,0,0,0,0,0,0,0,0,0
362228000,4000000.0,1.0,2081.6733,0.0,8330,0,2081.6733,8328,16573,0,0,0,1.9900336,0,2,0,0,1,0,64,0,0,0,0,0,0,0,0,0,0,0,0,0,0,0,0,0,0
363232000,4000000.0,1.0,1964.1434,0.0,8399,0,1964.1434,8399,16827,0,0,0,2.0034528,0,2,0,0,1,0,64,0,0,0,0,0,0,0,0,0,0,0,0,0,0,0,0,0,0
364228000,4000000.0,1.0,2068.725,0.0,8465,0,2068.725,8455,16827,0,0,0,1.9901834,0,2,0,0,1,0,64,0,0,0,0,0,0,0,0,0,0,0,0,0,0,0,0,0,0
365232000,4000000.0,1.0,1977.0917,0.0,8537,0,1977.0917,8537,16827,0,0,0,1.9710671,0,2,0,0,1,0,64,0,0,0,0,0,0,0,0,0,0,0,0,0,0,0,0,0,0
366228000,4000000.0,1.0,2211.1555,0.0,8605,0,2195.2192,8604,17082,0,0,0,1.9853556,0,2,0,0,1,0,64,0,0,0,0,0,0,0,0,0,0,0,0,0,0,0,0,0,0
367228000,4000000.0,1.0,1964.1434,0.0,8673,0,1980.0797,8668,17082,0,0,0,1.9706968,0,2,0,0,1,0,64,0,0,0,0,0,0,0,0,0,0,0,0,0,0,0,0,0,0
368232000,4000000.0,1.0,2081.6733,0.0,8743,0,2081.6733,8743,17082,0,0,0,1.9537916,0,2,0,0,1,0,64,0,0,0,0,0,0,0,0,0,0,0,0,0,0,0,0,0,0
369228000,4000000.0,1.0,1964.1434,0.0,8811,0,1964.1434,8806,17082,0,0,0,1.9398137,0,2,0,0,1,0,64,0,0,0,0,0,0,0,0,0,0,0,0,0,0,0,0,0,0
370232000,4000000.0,1.0,2068.725,0.0,8880,0,2068.725,8880,17082,0,0,0,1.9236486,0,2,0,0,1,0,64,0,0,0,0,0,0,0,0,0,0,0,0,0,0,0,0,0,0
371232000,4000000.0,1.0,1977.0917,0.0,8950,0,1977.0917,8950,17082,0,0,0,1.9086033,0,2,0,0,1,0,64,0,0,0,0,0,0,0,0,0,0,0,0,0,0,0,0,0,0
372232000,4000000.0,1.0,2068.725,0.0,9018,0,2068.725,9018,17337,0,0,0,1.9224883,0,2,0,0,1,0,64,0,0,0,0,0,0,0,0,0,0,0,0,0,0,0,0,0,0
373228000,4000000.0,1.0,1964.1434,0.0,9085,0,1964.1434,9073,17337,0,0,0,1.9108343,0,2,0,0,1,0,64,0,0,0,0,0,0,0,0,0,0,0,0,0,0,0,0,0,0
374228000,4000000.0,1.0,2081.6733,0.0,9154,0,2081.6733,9144,17337,0,0,0,1.8959974,0,2,0,0,1,0,64,0,0,0,0,0,0,0,0,0,0,0,0,0,0,0,0,0,0
375232000,4000000.0,1.0,1964.1434,0.0,9225,0,1964.1434,9225,17592,0,0,0,1.9069918,0,2,0,0,1,0,64,0,0,0,0,0,0,0,0,0,0,0,0,0,0,0,0,0,0
376232000,4000000.0,1.0,2068.725,0.0,9293,0,2068.725,9293,17847,0,0,0,1.9204777,0,2,0,0,1,0,64,0,0,0,0,0,0,0,0,0,0,0,0,0,0,0,0,0,0
377228000,4000000.0,1.0,1977.0917,0.0,9361,0,1977.0917,9349,17847,0,0,0,1.9089742,0,2,0,0,1,0,64,0,0,0,0,0,0,0,0,0,0,0,0,0,0,0,0,0,0
378228000,4000000.0,1.0,2068.725,0.0,9430,0,2068.725,9424,18102,0,0,0,1.9208404,0,2,0,0,1,0,64,0,0,0,0,0,0,0,0,0,0,0,0,0,0,0,0,0,0
379232000,4000000.0,1.0,1964.1434,0.0,9500,0,1964.1434,9500,18357,0,0,0,1.9323158,0,2,0,0,1,0,64,0,0,0,0,0,0,0,0,0,0,0,0,0,0,0,0,0,0
380228000,4000000.0,1.0,2081.6733,0.0,9567,0,2081.6733,9556,18357,0,0,0,1.920992,0,2,0,0,1,0,64,0,0,0,0,0,0,0,0,0,0,0,0,0,0,0,0,0,0
381228000,4000000.0,1.0,1964.1434,0.0,9636,0,1964.1434,9623,18357,0,0,0,1.9076172,0,2,0,0,1,0,64,0,0,0,0,0,0,0,0,0,0,0,0,0,0,0,0,0,0
382232000,4000000.0,1.0,2068.725,0.0,9706,0,2068.725,9706,18357,0,0,0,1.8913044,0,2,0,0,1,0,64,0,0,0,0,0,0,0,0,0,0,0,0,0,0,0,0,0,0
383228000,4000000.0,1.0,1977.0917,0.0,9774,0,1977.0917,9762,18357,0,0,0,1.8804548,0,2,0,0,1,0,64,0,0,0,0,0,0,0,0,0,0,0,0,0,0,0,0,0,0
384232000,4000000.0,1.0,2068.725,0.0,9844,0,2068.725,9844,18612,0,0,0,1.8906949,0,2,0,0,1,0,64,0,0,0,0,0,0,0,0,0,0,0,0,0,0,0,0,0,0
385228000,4000000.0,1.0,1964.1434,0.0,9912,0,1964.1434,9905,18612,0,0,0,1.879051,0,2,0,0,1,0,64,0,0,0,0,0,0,0,0,0,0,0,0,0,0,0,0,0,0
386232000,4000000.0,1.0,2081.6733,0.0,9982,0,2081.6733,9982,18612,0,0,0,1.8645562,0,2,0,0,1,0,64,0,0,0,0,0,0,0,0,0,0,0,0,0,0,0,0,0,0
387228000,4000000.0,1.0,1964.1434,0.0,10049,0,1964.1434,10037,18612,0,0,0,1.854339,0,2,0,0,1,0,64,0,0,0,0,0,0,0,0,0,0,0,0,0,0,0,0,0,0
388232000,4000000.0,1.0,2068.725,0.0,10119,0,2068.725,10119,18867,0,0,0,1.8645123,0,2,0,0,1,0,64,0,0,0,0,0,0,0,0,0,0,0,0,0,0,0,0,0,0
389228000,4000000.0,1.0,1977.0917,0.0,10189,0,1977.0917,10188,19120,0,0,0,1.8767177,0,2,0,0,1,0,64,0,0,0,0,0,0,0,0,0,0,0,0,0,0,0,0,0,0
390232000,4000000.0,1.0,2068.725,0.0,10257,0,2068.725,10257,19121,0,0,0,1.8641903,0,2,0,0,1,0,64,0,0,0,0,0,0,0,0,0,0,0,0,0,0,0,0,0,0
391232000,4000000.0,1.0,2142.4304,0.0,10326,0,1964.1434,10326,19121,0,0,0,1.8517334,0,2,0,0,1,0,64,0,0,0,0,0,0,0,0,0,0,0,0,0,0,0,0,0,0
392232000,4000000.0,1.0,2111.554,0.0,10395,0,2289.8408,10395,19121,0,0,0,1.839442,0,2,0,0,1,0,64,0,0,0,0,0,0,0,0,0,0,0,0,0,0,0,0,0,0
393232000,4000000.0,1.0,1964.1434,0.0,10464,0,1964.1434,10464,19121,0,0,0,1.8273127,0,2,0,0,1,0,64,0,0,0,0,0,0,0,0,0,0,0,0,0,0,0,0,0,0
394228000,4000000.0,1.0,2068.725,0.0,10532,0,2068.725,10528,19122,0,0,0,1.8162994,0,2,0,0,1,0,64,0,0,0,0,0,0,0,0,0,0,0,0,0,0,0,0,0,0
395228000,4000000.0,1.0,1977.0917,0.0,10601,0,1977.0917,10593,19376,0,0,0,1.8291324,0,2,0,0,1,0,64,0,0,0,0,0,0,0,0,0,0,0,0,0,0,0,0,0,0
396232000,4000000.0,1.0,2068.725,0.0,10670,0,2068.725,10670,19376,0,0,0,1.8159325,0,2,0,0,1,0,64,0,0,0,0,0,0,0,0,0,0,0,0,0,0,0,0,0,0
397228000,4000000.0,1.0,1964.1434,0.0,10737,0,1964.1434,10725,19376,0,0,0,1.80662,0,2,0,0,1,0,64,0,0,0,0,0,0,0,0,0,0,0,0,0,0,0,0,0,0
398232000,4000000.0,1.0,2081.6733,0.0,10808,0,2081.6733,10808,19376,0,0,0,1.7927461,0,2,0,0,1,0,64,0,0,0,0,0,0,0,0,0,0,0,0,0,0,0,0,0,0
399232000,4000000.0,1.0,1964.1434,0.0,10877,0,1964.1434,10877,19376,0,0,0,1.7813735,0,2,0,0,1,0,64,0,0,0,0,0,0,0,0,0,0,0,0,0,0,0,0,0,0
400232000,4000000.0,1.0,2068.725,0.0,10945,0,2068.725,10945,19376,0,0,0,1.7703061,0,2,0,0,1,0,64,0,0,0,0,0,0,0,0,0,0,0,0,0,0,0,0,0,0
401232000,4000000.0,1.0,1977.0917,0.0,11015,0,1977.0917,11015,19376,0,0,0,1.7590559,0,2,0,0,1,0,64,0,0,0,0,0,0,0,0,0,0,0,0,0,0,0,0,0,0
402228000,4000000.0,1.0,2068.725,0.0,11083,0,2068.725,11082,19631,0,0,0,1.7714312,0,2,0,0,1,0,64,0,0,0,0,0,0,0,0,0,0,0,0,0,0,0,0,0,0
403232000,4000000.0,1.0,1964.1434,0.0,11152,0,1964.1434,11152,19631,0,0,0,1.7603121,0,2,0,0,1,0,64,0,0,0,0,0,0,0,0,0,0,0,0,0,0,0,0,0,0
404232000,4000000.0,1.0,2081.6733,0.0,11221,0,2049.8008,11221,19631,0,0,0,1.7494875,0,2,0,0,1,0,64,0,0,0,0,0,0,0,0,0,0,0,0,0,0,0,0,0,0
405228000,4000000.0,1.0,1964.1434,0.0,11288,0,1996.016,11276,19631,0,0,0,1.7409543,0,2,0,0,1,0,64,0,0,0,0,0,0,0,0,0,0,0,0,0,0,0,0,0,0
406232000,4000000.0,1.0,2036.8527,0.0,11358,0,2036.8527,11358,19886,0,0,0,1.7508364,0,2,0,0,1,0,64,0,0,0,0,0,0,0,0,0,0,0,0,0,0,0,0,0,0
407232000,4000000.0,1.0,2008.9642,0.0,11428,0,2008.9642,11428,19886,0,0,0,1.740112,0,2,0,0,1,0,64,0,0,0,0,0,0,0,0,0,0,0,0,0,0,0,0,0,0
408228000,4000000.0,1.0,2036.8527,0.0,11494,0,2036.8527,11484,19886,0,0,0,1.7316266,0,2,0,0,1,0,64,0,0,0,0,0,0,0,0,0,0,0,0,0,0,0,0,0,0
409228000,4000000.0,1.0,1996.016,0.0,11564,0,1996.016,11559,20141,0,0,0,1.7424518,0,2,0,0,1,0,64,0,0,0,0,0,0,0,0,0,0,0,0,0,0,0,0,0,0
409672000,4000000.0,1.0,1996.016,0.0,11591,0,1996.016,11592,20396,0,0,0,1.7594893,0,2,0,0,1,0,64,0,1,0,0,0,0,0,0,0,0,0,0,0,0,0,0,0,0
410228000,4000000.0,1.0,2851.5938,0.0,11654,0,2868.526,11649,20396,0,0,0,1.7508799,0,2,0,0,1,0,64,0,1,0,0,0,0,0,0,0,0,0,0,0,0,0,0,0,0
411528000,4000000.0,1.0,1996.016,0.0,11740,0,2012.9482,11739,20904,0,0,0,1.7807308,0,2,0,0,1,0,64,0,1,0,0,0,0,0,0,0,0,0,0,0,0,0,0,0,0
412448000,4000000.0,1.0,2036.8527,0.0,11804,0,2053.785,11808,20906,0,0,0,1.7704946,0,2,0,0,1,0,64,0,1,0,0,0,0,0,0,0,0,0,0,0,0,0,0,0,0
413364000,4000000.0,1.0,2008.9642,0.0,11867,0,2025.8965,11872,21161,0,0,0,1.7824292,0,2,0,0,1,0,64,0,1,0,0,0,0,0,0,0,0,0,0,0,0,0,0,0,0
414300000,4000000.0,1.0,2036.8527,0.0,11930,0,2053.785,11936,21416,0,0,0,1.794236,0,2,0,0,1,0,64,0,1,0,0,0,0,0,0,0,0,0,0,0,0,0,0,0,0
415232000,4000000.0,1.0,1996.016,0.0,11999,0,2012.9482,12006,21671,0,0,0,1.8050141,0,2,0,0,1,0,64,0,1,0,0,0,0,0,0,0,0,0,0,0,0,0,0,0,0
416228000,4000000.0,1.0,2162.3506,0.0,12066,0,2066.7332,12063,21671,0,0,0,1.7964851,0,2,0,0,1,0,64,0,1,0,0,0,0,0,0,0,0,0,0,0,0,0,0,0,0
417228000,4000000.0,1.0,2025.8965,0.0,12135,0,2155.3787,12132,21926,0,0,0,1.8072865,0,2,0,0,1,0,64,0,1,0,0,0,0,0,0,0,0,0,0,0,0,0,0,0,0
418232000,4000000.0,1.0,2036.8527,0.0,12204,0,2053.785,12214,21926,0,0,0,1.7951531,0,2,0,0,1,0,64,0,1,0,0,0,0,0,0,0,0,0,0,0,0,0,0,0,0
419232000,4000000.0,1.0,2008.9642,0.0,12275,0,2042.8287,12286,21926,0,0,0,1.7846329,0,2,0,0,1,0,64,0,1,0,0,0,0,0,0,0,0,0,0,0,0,0,0,0,0
420228000,4000000.0,1.0,2036.8527,0.0,12342,0,2053.785,12352,21927,0,0,0,1.7751781,0,2,0,0,1,0,64,0,1,0,0,0,0,0,0,0,0,0,0,0,0,0,0,0,0
421232000,4000000.0,1.0,1996.016,0.0,12412,0,2012.9482,12425,22435,0,0,0,1.8056338,0,2,0,0,1,0,64,0,1,0,0,0,0,0,0,0,0,0,0,0,0,0,0,0,0
422228000,4000000.0,1.0,2049.8008,0.0,12480,0,2066.7332,12492,22690,0,0,0,1.8163625,0,2,0,0,1,0,64,0,1,0,0,0,0,0,0,0,0,0,0,0,0,0,0,0,0
423528000,4000000.0,1.0,1996.016,0.0,12566,0,2012.9482,12578,22945,0,0,0,1.8242168,0,2,0,0,1,0,64,0,1,0,0,0,0,0,0,0,0,0,0,0,0,0,0,0,0
424436000,4000000.0,1.0,2036.8527,0.0,12630,0,2053.785,12647,23200,0,0,0,1.8344271,0,2,0,0,1,0,64,0,1,0,0,0,0,0,0,0,0,0,0,0,0,0,0,0,0
425364000,4000000.0,1.0,2008.9642,0.0,12693,0,2025.8965,12711,23455,0,0,0,1.8452522,0,2,0,0,1,0,64,0,1,0,0,0,0,0,0,0,0,0,0,0,0,0,0,0,0
426280000,4000000.0,1.0,2036.8527,0.0,12755,0,2053.785,12774,23710,0,0,0,1.856114,0,2,0,0,1,0,64,0,1,0,0,0,0,0,0,0,0,0,0,0,0,0,0,0,0
427228000,4000000.0,1.0,1996.016,0.0,12823,0,2012.9482,12831,23710,0,0,0,1.8478684,0,2,0,0,1,0,64,0,1,0,0,0,0,0,0,0,0,0,0,0,0,0,0,0,0
428228000,4000000.0,1.0,2049.8008,0.0,12893,0,2066.7332,12913,23965,0,0,0,1.8558817,0,2,0,0,1,0,64,0,1,0,0,0,0,0,0,0,0,0,0,0,0,0,0,0,0
429228000,4000000.0,1.0,1996.016,0.0,12963,0,2012.9482,12983,23965,0,0,0,1.8458754,0,2,0,0,1,0,64,0,1,0,0,0,0,0,0,0,0,0,0,0,0,0,0,0,0
430232000,4000000.0,1.0,2036.8527,0.0,13030,0,2070.7173,13053,23965,0,0,0,1.8359764,0,2,0,0,1,0,64,0,1,0,0,0,0,0,0,0,0,0,0,0,0,0,0,0,0
431232000,4000000.0,1.0,2008.9642,0.0,13101,0,2025.8965,13125,23965,0,0,0,1.8259047,0,2,0,0,1,0,64,0,1,0,0,0,0,0,0,0,0,0,0,0,0,0,0,0,0
432232000,4000000.0,1.0,2036.8527,0.0,13168,0,2053.785,13193,24220,0,0,0,1.835822,0,2,0,0,1,0,64,0,1,0,0,0,0,0,0,0,0,0,0,0,0,0,0,0,0
433228000,4000000.0,1.0,1996.016,0.0,13238,0,2012.9482,13264,24475,0,0,0,1.8452201,0,2,0,0,1,0,64,0,1,0,0,0,0,0,0,0,0,0,0,0,0,0,0,0,0
434228000,4000000.0,1.0,2049.8008,0.0,13305,0,2066.7332,13327,24475,0,0,0,1.8364973,0,2,0,0,1,0,64,0,1,0,0,0,0,0,0,0,0,0,0,0,0,0,0,0,0
435464000,4000000.0,1.0,1996.016,0.0,13388,0,2012.9482,13417,24730,0,0,0,1.843184,0,2,0,0,1,0,64,0,1,0,0,0,0,0,0,0,0,0,0,0,0,0,0,0,0
436384000,4000000.0,1.0,2036.8527,0.0,13448,0,2053.785,13478,24730,0,0,0,1.834842,0,2,0,0,1,0,64,0,1,0,0,0,0,0,0,0,0,0,0,0,0,0,0,0,0
437296000,4000000.0,1.0,2008.9642,0.0,13514,0,2025.8965,13545,24730,0,0,0,1.825766,0,2,0,0,1,0,64,0,1,0,0,0,0,0,0,0,0,0,0,0,0,0,0,0,0
438228000,4000000.0,1.0,2036.8527,0.0,13581,0,2053.785,13612,24730,0,0,0,1.8167793,0,2,0,0,1,0,64,0,1,0,0,0,0,0,0,0,0,0,0,0,0,0,0,0,0
439228000,4000000.0,1.0,1996.016,0.0,13650,0,2012.9482,13677,24730,0,0,0,1.808145,0,2,0,0,1,0,64,0,1,0,0,0,0,0,0,0,0,0,0,0,0,0,0,0,0
440232000,4000000.0,1.0,2049.8008,0.0,13719,0,2066.7332,13753,24730,0,0,0,1.7981532,0,2,0,0,1,0,64,0,1,0,0,0,0,0,0,0,0,0,0,0,0,0,0,0,0
441228000,4000000.0,1.0,2174.3027,0.0,13787,0,2029.8805,13810,24985,0,0,0,1.8091962,0,2,0,0,1,0,64,0,1,0,0,0,0,0,0,0,0,0,0,0,0,0,0,0,0
442232000,4000000.0,1.0,2066.7332,0.0,13856,0,2261.9521,13892,25240,0,0,0,1.8168731,0,2,0,0,1,0,64,0,1,0,0,0,0,0,0,0,0,0,0,0,0,0,0,0,0
443228000,4000000.0,1.0,2008.9642,0.0,13927,0,2025.8965,13964,25495,0,0,0,1.8257662,0,2,0,0,1,0,64,0,1,0,0,0,0,0,0,0,0,0,0,0,0,0,0,0,0
444232000,4000000.0,1.0,2036.8527,0.0,13994,0,2053.785,14032,25495,0,0,0,1.8169185,0,2,0,0,1,0,64,0,1,0,0,0,0,0,0,0,0,0,0,0,0,0,0,0,0
445228000,4000000.0,1.0,1996.016,0.0,14063,0,2012.9482,14097,26004,0,0,0,1.8446478,0,2,0,0,1,0,64,0,1,0,0,0,0,0,0,0,0,0,0,0,0,0,0,0,0
446476000,4000000.0,1.0,2049.8008,0.0,14145,0,2066.7332,14186,26259,0,0,0,1.8510504,0,2,0,0,1,0,64,0,1,0,0,0,0,0,0,0,0,0,0,0,0,0,0,0,0
447396000,4000000.0,1.0,1996.016,0.0,14207,0,2012.9482,14249,26514,0,0,0,1.8607621,0,2,0,0,1,0,64,0,1,0,0,0,0,0,0,0,0,0,0,0,0,0,0,0,0
448308000,4000000.0,1.0,2036.8527,0.0,14269,0,2053.785,14312,26514,0,0,0,1.8525712,0,2,0,0,1,0,64,0,1,0,0,0,0,0,0,0,0,0,0,0,0,0,0,0,0
449232000,4000000.0,1.0,2008.9642,0.0,14340,0,2025.8965,14384,26514,0,0,0,1.8432981,0,2,0,0,1,0,64,0,1,0,0,0,0,0,0,0,0,0,0,0,0,0,0,0,0
450228000,4000000.0,1.0,2036.8527,0.0,14405,0,2053.785,14440,26769,0,0,0,1.8538089,0,2,0,0,1,0,64,0,1,0,0,0,0,0,0,0,0,0,0,0,0,0,0,0,0
451232000,4000000.0,1.0,1996.016,0.0,14477,0,2029.8805,14523,26769,0,0,0,1.8432142,0,2,0,0,1,0,64,0,1,0,0,0,0,0,0,0,0,0,0,0,0,0,0,0,0
452228000,4000000.0,1.0,2049.8008,0.0,14543,0,2066.7332,14580,26769,0,0,0,1.8360082,0,2,0,0,1,0,64,0,1,0,0,0,0,0,0,0,0,0,0,0,0,0,0,0,0
453228000,4000000.0,1.0,1996.016,0.0,14613,0,2012.9482,14649,27024,0,0,0,1.8447676,0,2,0,0,1,0,64,0,1,0,0,0,0,0,0,0,0,0,0,0,0,0,0,0,0
454232000,4000000.0,1.0,2036.8527,0.0,14682,0,2053.785,14731,27279,0,0,0,1.8518091,0,2,0,0,1,0,64,0,1,0,0,0,0,0,0,0,0,0,0,0,0,0,0,0,0
455232000,4000000.0,1.0,2008.9642,0.0,14753,0,2025.8965,14803,27279,0,0,0,1.8428022,0,2,0,0,1,0,64,0,1,0,0,0,0,0,0,0,0,0,0,0,0,0,0,0,0
456228000,4000000.0,1.0,2036.8527,0.0,14819,0,2053.785,14864,27279,0,0,0,1.8352395,0,2,0,0,1,0,64,0,1,0,0,0,0,0,0,0,0,0,0,0,0,0,0,0,0
457500000,4000000.0,1.0,1996.016,0.0,14902,0,2012.9482,14955,27789,0,0,0,1.8581746,0,2,0,0,1,0,64,0,1,0,0,0,0,0,0,0,0,0,0,0,0,0,0,0,0
458416000,4000000.0,1.0,2049.8008,0.0,14963,0,2066.7332,15017,28044,0,0,0,1.8674835,0,2,0,0,1,0,64,0,1,0,0,0,0,0,0,0,0,0,0,0,0,0,0,0,0
459332000,4000000.0,1.0,1996.016,0.0,15033,0,2012.9482,15088,28044,0,0,0,1.8586956,0,2,0,0,1,0,64,0,1,0,0,0,0,0,0,0,0,0,0,0,0,0,0,0,0
460248000,4000000.0,1.0,2036.8527,0.0,15095,0,2053.785,15151,28044,0,0,0,1.8509669,0,2,0,0,1,0,64,0,1,0,0,0,0,0,0,0,0,0,0,0,0,0,0,0,0
461228000,4000000.0,1.0,2008.9642,0.0,15165,0,2025.8965,15217,28298,0,0,0,1.8596307,0,2,0,0,1,0,64,0,1,0,0,0,0,0,0,0,0,0,0,0,0,0,0,0,0
462228000,4000000.0,1.0,2036.8527,0.0,15233,0,2070.7173,15285,28298,0,0,0,1.8513576,0,2,0,0,1,0,64,0,1,0,0,0,0,0,0,0,0,0,0,0,0,0,0,0,0
463232000,4000000.0,1.0,1996.016,0.0,15303,0,2012.9482,15362,28298,0,0,0,1.8420779,0,2,0,0,1,0,64,0,1,0,0,0,0,0,0,0,0,0,0,0,0,0,0,0,0
464228000,4000000.0,1.0,2049.8008,0.0,15370,0,2066.7332,15422,28298,0,0,0,1.8349111,0,2,0,0,1,0,64,0,1,0,0,0,0,0,0,0,0,0,0,0,0,0,0,0,0
465228000,4000000.0,1.0,1996.016,0.0,15441,0,2012.9482,15502,28553,0,0,0,1.8418914,0,2,0,0,1,0,64,0,1,0,0,0,0,0,0,0,0,0,0,0,0,0,0,0,0
466232000,4000000.0,1.0,2179.283,0.0,15508,0,2180.279,15570,28553,0,0,0,1.8338472,0,2,0,0,1,0,64,0,1,0,0,0,0,0,0,0,0,0,0,0,0,0,0,0,0
467232000,4000000.0,1.0,2008.9642,0.0,15579,0,2041.8328,15642,28553,0,0,0,1.825406,0,2,0,0,1,0,64,0,1,0,0,0,0,0,0,0,0,0,0,0,0,0,0,0,0
468500000,4000000.0,1.0,2036.8527,0.0,15658,0,2053.785,15723,28553,0,0,0,1.816002,0,2,0,0,1,0,64,0,1,0,0,0,0,0,0,0,0,0,0,0,0,0,0,0,0
469416000,4000000.0,1.0,1996.016,0.0,15721,0,2012.9482,15787,29063,0,0,0,1.8409451,0,2,0,0,1,0,64,0,1,0,0,0,0,0,0,0,0,0,0,0,0,0,0,0,0
470324000,4000000.0,1.0,2049.8008,0.0,15784,0,2066.7332,15851,29063,0,0,0,1.8335121,0,2,0,0,1,0,64,0,1,0,0,0,0,0,0,0,0,0,0,0,0,0,0,0,0
471248000,4000000.0,1.0,1996.016,0.0,15854,0,2012.9482,15922,29317,0,0,0,1.8412888,0,2,0,0,1,0,64,0,1,0,0,0,0,0,0,0,0,0,0,0,0,0,0,0,0
472232000,4000000.0,1.0,2036.8527,0.0,15921,0,2053.785,15990,29317,0,0,0,1.8334584,0,2,0,0,1,0,64,0,1,0,0,0,0,0,0,0,0,0,0,0,0,0,0,0,0
473228000,4000000.0,1.0,2008.9642,0.0,15992,0,2042.8287,16060,29318,0,0,0,1.8255292,0,2,0,0,1,0,64,0,1,0,0,0,0,0,0,0,0,0,0,0,0,0,0,0,0
474228000,4000000.0,1.0,2036.8527,0.0,16057,0,2053.785,16118,29827,0,0,0,1.8505398,0,2,0,0,1,0,64,0,1,0,0,0,0,0,0,0,0,0,0,0,0,0,0,0,0
475232000,4000000.0,1.0,1996.016,0.0,16129,0,2012.9482,16201,30082,0,0,0,1.856799,0,2,0,0,1,0,64,0,1,0,0,0,0,0,0,0,0,0,0,0,0,0,0,0,0
476232000,4000000.0,1.0,2049.8008,0.0,16197,0,2066.7332,16270,30082,0,0,0,1.8489244,0,2,0,0,1,0,64,0,1,0,0,0,0,0,0,0,0,0,0,0,0,0,0,0,0
477228000,4000000.0,1.0,1996.016,0.0,16266,0,2012.9482,16333,30082,0,0,0,1.8417927,0,2,0,0,1,0,64,0,1,0,0,0,0,0,0,0,0,0,0,0,0,0,0,0,0
478232000,4000000.0,1.0,2036.8527,0.0,16334,0,2053.785,16409,30337,0,0,0,1.8488024,0,2,0,0,1,0,64,0,1,0,0,0,0,0,0,0,0,0,0,0,0,0,0,0,0
479500000,4000000.0,1.0,2008.9642,0.0,16417,0,2025.8965,16494,30592,0,0,0,1.854735,0,2,0,0,1,0,64,0,1,0,0,0,0,0,0,0,0,0,0,0,0,0,0,0,0
480408000,4000000.0,1.0,2036.8527,0.0,16477,0,2053.785,16555,30847,0,0,0,1.8633041,0,2,0,0,1,0,64,0,1,0,0,0,0,0,0,0,0,0,0,0,0,0,0,0,0
481344000,4000000.0,1.0,1996.016,0.0,16547,0,2012.9482,16626,31102,0,0,0,1.8706845,0,2,0,0,1,0,64,0,1,0,0,0,0,0,0,0,0,0,0,0,0,0,0,0,0
482268000,4000000.0,1.0,2049.8008,0.0,16610,0,2066.7332,16690,31612,0,0,0,1.8940684,0,2,0,0,1,0,64,0,1,0,0,0,0,0,0,0,0,0,0,0,0,0,0,0,0
483228000,4000000.0,1.0,1996.016,0.0,16679,0,2029.8805,16752,31612,0,0,0,1.8870583,0,2,0,0,1,0,64,0,1,0,0,0,0,0,0,0,0,0,0,0,0,0,0,0,0
484228000,4000000.0,1.0,2036.8527,0.0,16747,0,2053.785,16827,31612,0,0,0,1.8786474,0,2,0,0,1,0,64,0,1,0,0,0,0,0,0,0,0,0,0,0,0,0,0,0,0
485232000,4000000.0,1.0,2008.9642,0.0,16818,0,2025.8965,16901,31867,0,0,0,1.8855097,0,2,0,0,1,0,64,0,1,0,0,0,0,0,0,0,0,0,0,0,0,0,0,0,0
486232000,4000000.0,1.0,2036.8527,0.0,16885,0,2053.785,16969,31867,0,0,0,1.8779539,0,2,0,0,1,0,64,0,1,0,0,0,0,0,0,0,0,0,0,0,0,0,0,0,0
487232000,4000000.0,1.0,1996.016,0.0,16955,0,2012.9482,17040,31867,0,0,0,1.8701291,0,2,0,0,1,0,64,0,1,0,0,0,0,0,0,0,0,0,0,0,0,0,0,0,0
488228000,4000000.0,1.0,2049.8008,0.0,17021,0,2066.7332,17097,31867,0,0,0,1.8638942,0,2,0,0,1,0,64,0,1,0,0,0,0,0,0,0,0,0,0,0,0,0,0,0,0
489228000,4000000.0,1.0,1996.016,0.0,17092,0,2012.9482,17174,31867,0,0,0,1.8555374,0,2,0,0,1,0,64,0,1,0,0,0,0,0,0,0,0,0,0,0,0,0,0,0,0
490228000,4000000.0,1.0,2036.8527,0.0,17158,0,2053.785,17236,32121,0,0,0,1.8635994,0,2,0,0,1,0,64,0,1,0,0,0,0,0,0,0,0,0,0,0,0,0,0,0,0
491472000,4000000.0,1.0,2483.0679,0.0,17243,0,2462.1514,17333,32631,0,0,0,1.8825939,0,2,0,0,1,0,64,0,1,0,0,0,0,0,0,0,0,0,0,0,0,0,0,0,0
492388000,4000000.0,1.0,1964.1434,0.0,17303,0,2018.9243,17394,32886,0,0,0,1.890652,0,2,0,0,1,0,64,0,1,0,0,0,0,0,0,0,0,0,0,0,0,0,0,0,0
493316000,4000000.0,1.0,2068.725,0.0,17368,0,2085.6575,17460,32886,0,0,0,1.8835051,0,2,0,0,1,0,64,0,1,0,0,0,0,0,0,0,0,0,0,0,0,0,0,0,0
494244000,4000000.0,1.0,1977.0917,0.0,17436,0,1994.0239,17529,32886,0,0,0,1.876091,0,2,0,0,1,0,64,0,1,0,0,0,0,0,0,0,0,0,0,0,0,0,0,0,0
495228000,4000000.0,1.0,1977.0917,0.0,17505,0,1994.0239,17593,32886,0,0,0,1.8692662,0,2,0,0,1,0,64,0,1,0,0,0,0,0,0,0,0,0,0,0,0,0,0,0,0
496232000,4000000.0,1.0,2068.725,0.0,17573,0,2102.5896,17668,33141,0,0,0,1.8757641,0,2,0,0,1,0,64,0,1,0,0,0,0,0,0,0,0,0,0,0,0,0,0,0,0
497232000,4000000.0,1.0,1964.1434,0.0,17644,0,1981.0758,17740,33141,0,0,0,1.8681511,0,2,0,0,1,0,64,0,1,0,0,0,0,0,0,0,0,0,0,0,0,0,0,0,0
498228000,4000000.0,1.0,2081.6733,0.0,17711,0,2098.6057,17806,33397,0,0,0,1.8756037,0,2,0,0,1,0,64,0,1,0,0,0,0,0,0,0,0,0,0,0,0,0,0,0,0
499228000,4000000.0,1.0,1965.1395,0.0,17781,0,1982.0718,17877,33651,0,0,0,1.8823628,0,2,0,0,1,0,64,0,1,0,0,0,0,0,0,0,0,0,0,0,0,0,0,0,0
500228000,4000000.0,1.0,2069.7212,0.0,17849,0,2086.6536,17948,33906,0,0,0,1.8891242,0,2,0,0,1,0,64,0,1,0,0,0,0,0,0,0,0,0,0,0,0,0,0,0,0
501228000,4000000.0,1.0,1978.0878,0.0,17917,0,1995.02,18004,33906,0,0,0,1.8832482,0,2,0,0,1,0,64,0,1,0,0,0,0,0,0,0,0,0,0,0,0,0,0,0,0
502492000,4000000.0,1.0,1965.1395,0.0,17998,0,1982.0718,18100,34416,0,0,0,1.9014364,0,2,0,0,1,0,64,0,1,0,0,0,0,0,0,0,0,0,0,0,0,0,0,0,0
503404000,4000000.0,1.0,2082.6694,0.0,18062,0,2099.6016,18165,34416,0,0,0,1.8946326,0,2,0,0,1,0,64,0,1,0,0,0,0,0,0,0,0,0,0,0,0,0,0,0,0
504316000,4000000.0,1.0,1965.1395,0.0,18124,0,1982.0718,18228,34416,0,0,0,1.8880843,0,2,0,0,1,0,64,0,1,0,0,0,0,0,0,0,0,0,0,0,0,0,0,0,0
505232000,4000000.0,1.0,1965.1395,0.0,18194,0,1982.0718,18299,35436,0,0,0,1.9364992,0,2,0,0,1,0,64,0,1,0,0,0,0,0,0,0,0,0,0,0,0,0,0,0,0
506232000,4000000.0,1.0,2069.7212,0.0,18262,0,2103.5857,18368,35436,0,0,0,1.9292247,0,2,0,0,1,0,64,0,1,0,0,0,0,0,0,0,0,0,0,0,0,0,0,0,0
507228000,4000000.0,1.0,1978.0878,0.0,18332,0,1995.02,18436,35436,0,0,0,1.9221089,0,2,0,0,1,0,64,0,1,0,0,0,0,0,0,0,0,0,0,0,0,0,0,0,0
508232000,4000000.0,1.0,2069.7212,0.0,18399,0,2086.6536,18507,35691,0,0,0,1.9285135,0,2,0,0,1,0,64,0,1,0,0,0,0,0,0,0,0,0,0,0,0,0,0,0,0
509228000,4000000.0,1.0,1965.1395,0.0,18469,0,1982.0718,18573,35691,0,0,0,1.9216604,0,2,0,0,1,0,64,0,1,0,0,0,0,0,0,0,0,0,0,0,0,0,0,0,0
510232000,4000000.0,1.0,2082.6694,0.0,18537,0,2099.6016,18647,35946,0,0,0,1.9277096,0,2,0,0,1,0,64,0,1,0,0,0,0,0,0,0,0,0,0,0,0,0,0,0,0
511228000,4000000.0,1.0,1965.1395,0.0,18605,0,1982.0718,18704,35946,0,0,0,1.921835,0,2,0,0,1,0,64,0,1,0,0,0,0,0,0,0,0,0,0,0,0,0,0,0,0
512228000,4000000.0,1.0,2069.7212,0.0,18675,0,2086.6536,18782,36456,0,0,0,1.9410074,0,2,0,0,1,0,64,0,1,0,0,0,0,0,0,0,0,0,0,0,0,0,0,0,0
513492000,4000000.0,1.0,2069.7212,0.0,18757,0,2086.6536,18871,36711,0,0,0,1.9453659,0,2,0,0,1,0,64,0,1,0,0,0,0,0,0,0,0,0,0,0,0,0,0,0,0
514400000,4000000.0,1.0,1965.1395,0.0,18817,0,1982.0718,18932,36966,0,0,0,1.9525671,0,2,0,0,1,0,64,0,1,0,0,0,0,0,0,0,0,0,0,0,0,0,0,0,0
515312000,4000000.0,1.0,1965.1395,0.0,18883,0,1982.0718,18999,37476,0,0,0,1.9725249,0,2,0,0,1,0,64,0,1,0,0,0,0,0,0,0,0,0,0,0,0,0,0,0,0
516240000,4000000.0,1.0,2082.6694,0.0,18950,0,2116.534,19067,37729,0,0,0,1.9787592,0,2,0,0,1,0,64,0,1,0,0,0,0,0,0,0,0,0,0,0,0,0,0,0,0
517228000,4000000.0,1.0,2077.6892,0.0,19018,0,1982.0718,19124,37731,0,0,0,1.972966,0,2,0,0,1,0,64,0,1,0,0,0,0,0,0,0,0,0,0,0,0,0,0,0,0
518228000,4000000.0,1.0,2099.6016,0.0,19086,0,2229.0837,19195,37731,0,0,0,1.9656682,0,2,0,0,1,0,64,0,1,0,0,0,0,0,0,0,0,0,0,0,0,0,0,0,0
519228000,4000000.0,1.0,1978.0878,0.0,19158,0,1995.02,19277,37986,0,0,0,1.9705348,0,2,0,0,1,0,64,0,1,0,0,0,0,0,0,0,0,0,0,0,0,0,0,0,0
520228000,4000000.0,1.0,2069.7212,0.0,19223,0,2086.6536,19334,37986,0,0,0,1.9647254,0,2,0,0,1,0,64,0,1,0,0,0,0,0,0,0,0,0,0,0,0,0,0,0,0
521232000,4000000.0,1.0,1965.1395,0.0,19296,0,1982.0718,19418,37986,0,0,0,1.9562262,0,2,0,0,1,0,64,0,1,0,0,0,0,0,0,0,0,0,0,0,0,0,0,0,0
522228000,4000000.0,1.0,2082.6694,0.0,19361,0,2099.6016,19474,37986,0,0,0,1.9506007,0,2,0,0,1,0,64,0,1,0,0,0,0,0,0,0,0,0,0,0,0,0,0,0,0
523228000,4000000.0,1.0,1965.1395,0.0,19433,0,1982.0718,19557,38241,0,0,0,1.9553612,0,2,0,0,1,0,64,0,1,0,0,0,0,0,0,0,0,0,0,0,0,0,0,0,0
524488000,4000000.0,1.0,1978.0878,0.0,19513,0,1995.02,19639,38751,0,0,0,1.9731656,0,2,0,0,1,0,64,0,1,0,0,0,0,0,0,0,0,0,0,0,0,0,0,0,0
525404000,4000000.0,1.0,2069.7212,0.0,19576,0,2086.6536,19703,39006,0,0,0,1.9796985,0,2,0,0,1,0,64,0,1,0,0,0,0,0,0,0,0,0,0,0,0,0,0,0,0
526316000,4000000.0,1.0,2069.7212,0.0,19638,0,2086.6536,19766,39006,0,0,0,1.9733887,0,2,0,0,1,0,64,0,1,0,0,0,0,0,0,0,0,0,0,0,0,0,0,0,0
527240000,4000000.0,1.0,1965.1395,0.0,19709,0,1999.004,19838,39006,0,0,0,1.9662265,0,2,0,0,1,0,64,0,1,0,0,0,0,0,0,0,0,0,0,0,0,0,0,0,0
528232000,4000000.0,1.0,2082.6694,0.0,19776,0,2099.6016,19906,39006,0,0,0,1.9595097,0,2,0,0,1,0,64,0,1,0,0,0,0,0,0,0,0,0,0,0,0,0,0,0,0
529232000,4000000.0,1.0,1965.1395,0.0,19846,0,1982.0718,19977,39006,0,0,0,1.9525454,0,2,0,0,1,0,64,0,1,0,0,0,0,0,0,0,0,0,0,0,0,0,0,0,0
530228000,4000000.0,1.0,2069.7212,0.0,19912,0,2086.6536,20034,39006,0,0,0,1.9469901,0,2,0,0,1,0,64,0,1,0,0,0,0,0,0,0,0,0,0,0,0,0,0,0,0
531228000,4000000.0,1.0,1978.0878,0.0,19984,0,1995.02,20115,39261,0,0,0,1.951827,0,2,0,0,1,0,64,0,1,0,0,0,0,0,0,0,0,0,0,0,0,0,0,0,0
532232000,4000000.0,1.0,2069.7212,0.0,20051,0,2086.6536,20185,39261,0,0,0,1.9450582,0,2,0,0,1,0,64,0,1,0,0,0,0,0,0,0,0,0,0,0,0,0,0,0,0
533228000,4000000.0,1.0,1965.1395,0.0,20121,0,1982.0718,20247,39261,0,0,0,1.939102,0,2,0,0,1,0,64,0,1,0,0,0,0,0,0,0,0,0,0,0,0,0,0,0,0
534228000,4000000.0,1.0,2082.6694,0.0,20189,0,2099.6016,20322,39261,0,0,0,1.9319457,0,2,0,0,1,0,64,0,1,0,0,0,0,0,0,0,0,0,0,0,0,0,0,0,0
535488000,4000000.0,1.0,2069.7212,0.0,20271,0,2086.6536,20409,39261,0,0,0,1.9237101,0,2,0,0,1,0,64,0,1,0,0,0,0,0,0,0,0,0,0,0,0,0,0,0,0
536408000,4000000.0,1.0,1978.0878,0.0,20332,0,2011.9523,20471,39771,0,0,0,1.9427972,0,2,0,0,1,0,64,0,1,0,0,0,0,0,0,0,0,0,0,0,0,0,0,0,0
537312000,4000000.0,1.0,1978.0878,0.0,20397,0,2011.9523,20537,39771,0,0,0,1.9365535,0,2,0,0,1,0,64,0,1,0,0,0,0,0,0,0,0,0,0,0,0,0,0,0,0
538236000,4000000.0,1.0,2069.7212,0.0,20464,0,2086.6536,20605,40026,0,0,0,1.9425383,0,2,0,0,1,0,64,0,1,0,0,0,0,0,0,0,0,0,0,0,0,0,0,0,0
539228000,4000000.0,1.0,1965.1395,0.0,20534,0,1982.0718,20671,40281,0,0,0,1.948672,0,2,0,0,1,0,64,0,1,0,0,0,0,0,0,0,0,0,0,0,0,0,0,0,0
540228000,4000000.0,1.0,2082.6694,0.0,20600,0,2099.6016,20733,40536,0,0,0,1.9551439,0,2,0,0,1,0,64,0,1,0,0,0,0,0,0,0,0,0,0,0,0,0,0,0,0
541228000,4000000.0,1.0,1965.1395,0.0,20670,0,1982.0718,20802,40536,0,0,0,1.9486588,0,2,0,0,1,0,64,0,1,0,0,0,0,0,0,0,0,0,0,0,0,0,0,0,0
542232000,4000000.0,1.0,2248.008,0.0,20740,0,2086.6536,20885,41301,0,0,0,1.9775437,0,2,0,0,1,0,64,0,1,0,0,0,0,0,0,0,0,0,0,0,0,0,0,0,0
543228000,4000000.0,1.0,2007.9681,0.0,20809,0,2203.1873,20953,41301,0,0,0,1.9711258,0,2,0,0,1,0,64,0,1,0,0,0,0,0,0,0,0,0,0,0,0,0,0,0,0
544232000,4000000.0,1.0,2069.7212,0.0,20877,0,2086.6536,21024,41301,0,0,0,1.9644692,0,2,0,0,1,0,64,0,1,0,0,0,0,0,0,0,0,0,0,0,0,0,0,0,0
545232000,4000000.0,1.0,1965.1395,0.0,20947,0,1982.0718,21095,41301,0,0,0,1.9578574,0,2,0,0,1,0,64,0,1,0,0,0,0,0,0,0,0,0,0,0,0,0,0,0,0
546484000,4000000.0,1.0,1965.1395,0.0,21027,0,1982.0718,21177,41556,0,0,0,1.9623176,0,2,0,0,1,0,64,0,1,0,0,0,0,0,0,0,0,0,0,0,0,0,0,0,0
547408000,4000000.0,1.0,1965.1395,0.0,21090,0,1982.0718,21241,41556,0,0,0,1.956405,0,2,0,0,1,0,64,0,1,0,0,0,0,0,0,0,0,0,0,0,0,0,0,0,0
548320000,4000000.0,1.0,2069.7212,0.0,21153,0,2103.5857,21305,42066,0,0,0,1.9744661,0,2,0,0,1,0,64,0,1,0,0,0,0,0,0,0,0,0,0,0,0,0,0,0,0
549236000,4000000.0,1.0,1978.0878,0.0,21222,0,1995.02,21375,42320,0,0,0,1.9798831,0,2,0,0,1,0,64,0,1,0,0,0,0,0,0,0,0,0,0,0,0,0,0,0,0
550232000,4000000.0,1.0,2069.7212,0.0,21290,0,2086.6536,21444,42320,0,0,0,1.9735124,0,2,0,0,1,0,64,0,1,0,0,0,0,0,0,0,0,0,0,0,0,0,0,0,0
551232000,4000000.0,1.0,1965.1395,0.0,21360,0,1982.0718,21515,42320,0,0,0,1.9669998,0,2,0,0,1,0,64,0,1,0,0,0,0,0,0,0,0,0,0,0,0,0,0,0,0
552232000,4000000.0,1.0,2082.6694,0.0,21428,0,2099.6016,21584,42320,0,0,0,1.9607116,0,2,0,0,1,0,64,0,1,0,0,0,0,0,0,0,0,0,0,0,0,0,0,0,0
553228000,4000000.0,1.0,1965.1395,0.0,21497,0,1982.0718,21653,42320,0,0,0,1.9544636,0,2,0,0,1,0,64,0,1,0,0,0,0,0,0,0,0,0,0,0,0,0,0,0,0
554228000,4000000.0,1.0,2069.7212,0.0,21566,0,2086.6536,21721,42576,0,0,0,1.9601307,0,2,0,0,1,0,64,0,1,0,0,0,0,0,0,0,0,0,0,0,0,0,0,0,0
555228000,4000000.0,1.0,1978.0878,0.0,21633,0,1995.02,21780,43085,0,0,0,1.978191,0,2,0,0,1,0,64,0,1,0,0,0,0,0,0,0,0,0,0,0,0,0,0,0,0
556232000,4000000.0,1.0,2069.7212,0.0,21703,0,2086.6536,21863,43340,0,0,0,1.9823446,0,2,0,0,1,0,64,0,1,0,0,0,0,0,0,0,0,0,0,0,0,0,0,0,0
557488000,4000000.0,1.0,1965.1395,0.0,21786,0,1982.0718,21948,43340,0,0,0,1.9746674,0,2,0,0,1,0,64,0,1,0,0,0,0,0,0,0,0,0,0,0,0,0,0,0,0
558404000,4000000.0,1.0,2082.6694,0.0,21846,0,2116.534,22009,43340,0,0,0,1.9691944,0,2,0,0,1,0,64,0,1,0,0,0,0,0,0,0,0,0,0,0,0,0,0,0,0
559328000,4000000.0,1.0,1965.1395,0.0,21915,0,1982.0718,22078,43595,0,0,0,1.9745901,0,2,0,0,1,0,64,0,1,0,0,0,0,0,0,0,0,0,0,0,0,0,0,0,0
560228000,4000000.0,1.0,2069.7212,0.0,21979,0,2086.6536,22142,43595,0,0,0,1.9688827,0,2,0,0,1,0,64,0,1,0,0,0,0,0,0,0,0,0,0,0,0,0,0,0,0
561232000,4000000.0,1.0,1978.0878,0.0,22048,0,1995.02,22214,43850,0,0,0,1.9739804,0,2,0,0,1,0,64,0,1,0,0,0,0,0,0,0,0,0,0,0,0,0,0,0,0
562228000,4000000.0,1.0,2069.7212,0.0,22116,0,2086.6536,22282,44106,0,0,0,1.9794453,0,2,0,0,1,0,64,0,1,0,0,0,0,0,0,0,0,0,0,0,0,0,0,0,0
563228000,4000000.0,1.0,1965.1395,0.0,22186,0,1982.0718,22352,44615,0,0,0,1.9960183,0,2,0,0,1,0,64,0,1,0,0,0,0,0,0,0,0,0,0,0,0,0,0,0,0
564228000,4000000.0,1.0,2082.6694,0.0,22253,0,2099.6016,22416,44870,0,0,0,2.0016952,0,2,0,0,1,0,64,0,1,0,0,0,0,0,0,0,0,0,0,0,0,0,0,0,0
565228000,4000000.0,1.0,1965.1395,0.0,22321,0,1982.0718,22478,44870,0,0,0,1.996174,0,2,0,0,1,0,64,0,1,0,0,0,0,0,0,0,0,0,0,0,0,0,0,0,0
566232000,4000000.0,1.0,2069.7212,0.0,22392,0,2086.6536,22563,44870,0,0,0,1.988654,0,2,0,0,1,0,64,0,1,0,0,0,0,0,0,0,0,0,0,0,0,0,0,0,0
567232000,4000000.0,1.0,2090.6375,0.0,22461,0,1995.02,22633,44870,0,0,0,1.9825034,0,2,0,0,1,0,64,0,1,0,0,0,0,0,0,0,0,0,0,0,0,0,0,0,0
568228000,4000000.0,1.0,2099.6016,0.0,22529,0,2229.0837,22701,45123,0,0,0,1.9877098,0,2,0,0,1,0,64,0,1,0,0,0,0,0,0,0,0,0,0,0,0,0,0,0,0
569228000,4000000.0,1.0,1965.1395,0.0,22598,0,1982.0718,22765,45125,0,0,0,1.9822096,0,2,0,0,1,0,64,0,1,0,0,0,0,0,0,0,0,0,0,0,0,0,0,0,0
570228000,4000000.0,1.0,2082.6694,0.0,22666,0,2099.6016,22831,45125,0,0,0,1.9764793,0,2,0,0,1,0,64,0,1,0,0,0,0,0,0,0,0,0,0,0,0,0,0,0,0
571232000,4000000.0,1.0,1965.1395,0.0,22736,0,1982.0718,22912,45125,0,0,0,1.969492,0,2,0,0,1,0,64,0,1,0,0,0,0,0,0,0,0,0,0,0,0,0,0,0,0
572228000,4000000.0,1.0,2069.7212,0.0,22805,0,2086.6536,22981,45125,0,0,0,1.9635786,0,2,0,0,1,0,64,0,1,0,0,0,0,0,0,0,0,0,0,0,0,0,0,0,0
573232000,4000000.0,1.0,1978.0878,0.0,22874,0,1995.02,23052,45125,0,0,0,1.9575309,0,2,0,0,1,0,64,0,1,0,0,0,0,0,0,0,0,0,0,0,0,0,0,0,0
574232000,4000000.0,1.0,2069.7212,0.0,22942,0,2086.6536,23121,45125,0,0,0,1.9516889,0,2,0,0,1,0,64,0,1,0,0,0,0,0,0,0,0,0,0,0,0,0,0,0,0
575232000,4000000.0,1.0,1965.1395,0.0,23012,0,1982.0718,23192,45125,0,0,0,1.945714,0,2,0,0,1,0,64,0,1,0,0,0,0,0,0,0,0,0,0,0,0,0,0,0,0
576228000,4000000.0,1.0,2082.6694,0.0,23080,0,2099.6016,23260,45378,0,0,0,1.9509028,0,2,0,0,1,0,64,0,1,0,0,0,0,0,0,0,0,0,0,0,0,0,0,0,0
577228000,4000000.0,1.0,1965.1395,0.0,23147,0,1982.0718,23317,45380,0,0,0,1.9462194,0,2,0,0,1,0,64,0,1,0,0,0,0,0,0,0,0,0,0,0,0,0,0,0,0
578228000,4000000.0,1.0,2069.7212,0.0,23216,0,2086.6536,23389,45890,0,0,0,1.9620334,0,2,0,0,1,0,64,0,1,0,0,0,0,0,0,0,0,0,0,0,0,0,0,0,0
579228000,4000000.0,1.0,1978.0878,0.0,23286,0,1995.02,23465,45890,0,0,0,1.9556787,0,2,0,0,1,0,64,0,1,0,0,0,0,0,0,0,0,0,0,0,0,0,0,0,0
580228000,4000000.0,1.0,2069.7212,0.0,23353,0,2086.6536,23528,46145,0,0,0,1.9612802,0,2,0,0,1,0,64,0,1,0,0,0,0,0,0,0,0,0,0,0,0,0,0,0,0
581232000,4000000.0,1.0,1965.1395,0.0,23425,0,1982.0718,23611,46145,0,0,0,1.9543856,0,2,0,0,1,0,64,0,1,0,0,0,0,0,0,0,0,0,0,0,0,0,0,0,0
582228000,4000000.0,1.0,2082.6694,0.0,23491,0,2099.6016,23668,46400,0,0,0,1.9604529,0,2,0,0,1,0,64,0,1,0,0,0,0,0,0,0,0,0,0,0,0,0,0,0,0
583228000,4000000.0,1.0,1965.1395,0.0,23562,0,1982.0718,23750,46655,0,0,0,1.964421,0,2,0,0,1,0,64,0,1,0,0,0,0,0,0,0,0,0,0,0,0,0,0,0,0
584228000,4000000.0,1.0,2069.7212,0.0,23630,0,2086.6536,23813,46655,0,0,0,1.959224,0,2,0,0,1,0,64,0,1,0,0,0,0,0,0,0,0,0,0,0,0,0,0,0,0
585228000,4000000.0,1.0,1978.0878,0.0,23700,0,1995.02,23889,46911,0,0,0,1.9637071,0,2,0,0,1,0,64,0,1,0,0,0,0,0,0,0,0,0,0,0,0,0,0,0,0
